city,id,countryCD,date,lon,lat,temp,maxTemp,humidity %,clouds,windSpeed_MPH
Alexeni,665010,RO,2018-04-03 23:17:28,23.25,45.14,31.77,31.77,83.0,0.0,2.7961750000000003
Maravatio,3996626,MX,2018-04-03 21:42:00,-100.44,19.89,80.6,80.6,30.0,75.0,25.523485400000002
Yeri,1925936,KR,2018-04-03 22:00:00,128.55,35.42,55.4,55.4,87.0,20.0,2.5053728000000004
Deta,679456,RO,2018-04-03 23:00:00,21.22,45.39,42.57,48.2,57.0,0.0,25.523485400000002
Aime,3038426,FR,2018-04-03 23:00:00,6.65,45.56,47.3,48.2,66.0,0.0,7.5161184
Tintafor,2403407,SL,2018-04-03 23:17:30,-13.21,8.63,79.2,79.2,99.0,0.0,19.0587288
East Melbourne,6952201,AU,2018-04-03 23:00:00,144.99,-37.81,61.43,62.6,77.0,90.0,18.007367000000002
Goeteborg,2711537,SE,2018-04-03 22:50:00,11.97,57.71,24.8,24.8,68.0,0.0,4.809421
Pawhuska,4547675,US,2018-04-03 22:53:00,-96.34,36.67,47.08,50.0,81.0,90.0,23.0181126
Villa Yapacani,3901504,BO,2018-04-03 23:17:40,-63.83,-17.4,75.51,75.51,72.0,48.0,13.309793
Prescot,2639928,GB,2018-04-03 22:50:00,-2.8,53.43,48.2,48.2,87.0,40.0,20.512739800000002
Abuja,2352778,NG,2018-04-03 23:17:32,7.49,9.06,79.61,79.61,73.0,20.0,22.816788
Gwembe,917011,ZM,2018-04-03 23:17:32,27.61,-16.5,62.78,62.78,97.0,0.0,5.5476112
Lonate Ceppino,3174609,IT,2018-04-03 22:50:00,8.87,45.7,51.1,53.6,81.0,40.0,5.010745600000001
Henley on Thames,2647101,GB,2018-04-03 22:50:00,-0.9,51.53,49.78,51.8,93.0,80.0,25.523485400000002
Ebersdorf,2766429,AT,2018-04-03 23:17:33,15.55,48.16,34.34,34.34,72.0,24.0,4.809421
Ogre,457065,LV,2018-04-03 22:50:00,24.61,56.82,32.0,32.0,91.0,0.0,13.018990800000001
Baliton,1727999,PH,2018-04-03 23:17:33,125.24,5.75,80.1,80.1,79.0,8.0,6.554234200000001
Sakurai,1853066,JP,2018-04-03 22:30:00,135.84,34.52,57.85,59.0,87.0,0.0,5.010745600000001
Bammatyurt,579327,RU,2018-04-03 23:17:42,46.61,43.34,40.05,40.05,99.0,24.0,9.7977972
Orotelli,3171919,IT,2018-04-03 22:55:00,9.11,40.31,53.6,53.6,81.0,20.0,7.5161184
Pinar de Chamartin,6324376,ES,2018-04-03 23:00:00,-3.67,40.48,54.48,55.4,82.0,75.0,18.007367000000002
Musson,2790516,LU,2018-04-03 22:50:00,5.71,49.56,48.2,48.2,76.0,75.0,15.5019942
Prudentopolis,3452216,BR,2018-04-03 23:14:44,-50.98,-25.21,63.86,63.86,86.0,48.0,7.5608572
Verkhoshizhemye,474370,RU,2018-04-03 23:17:34,49.1,58.01,31.68,31.68,91.0,76.0,38.3187822
Simplicio Mendes,3387620,BR,2018-04-03 23:17:35,-41.91,-7.85,76.55,76.55,90.0,0.0,11.050483600000002
Rustam jo Goth,1166720,PK,2018-04-03 22:30:00,68.8,27.97,78.8,78.8,65.0,40.0,15.5019942
Peschiera del Garda,3171152,IT,2018-04-03 22:55:00,10.69,45.44,52.39,53.6,66.0,40.0,13.018990800000001
Dabas,3053836,HU,2018-04-03 23:00:00,19.32,47.17,41.74,44.6,80.0,0.0,15.5019942
Oxkutzcab,3522251,MX,2018-04-03 23:15:59,-89.42,20.3,85.91,85.91,44.0,20.0,16.0612292
Suluq,81604,LY,2018-04-03 22:30:00,20.25,31.67,55.4,55.4,76.0,0.0,13.018990800000001
Catayuan,1717916,PH,2018-04-03 23:17:36,121.65,18.16,73.17,73.17,91.0,92.0,5.7936746
Sahuayo de Morelos,3988258,MX,2018-04-03 23:15:52,-102.72,20.06,79.34,79.34,26.0,20.0,12.057106600000001
Cordemais,3023697,FR,2018-04-03 23:00:00,-1.88,47.29,51.8,51.8,87.0,56.0,33.5317306
Burlington,5911592,CA,2018-04-03 22:00:00,-79.8,43.32,40.28,42.8,55.0,90.0,23.0181126
Marondera,886990,ZW,2018-04-03 23:17:37,31.55,-18.19,57.15,57.15,96.0,12.0,6.0621074
Vinces,3650186,EC,2018-04-03 22:00:00,-79.75,-1.56,84.2,84.2,70.0,75.0,18.007367000000002
Amet,1278808,IN,2018-04-03 23:17:37,73.93,25.3,70.16,70.16,33.0,20.0,15.5691024
Langui,3936963,PE,2018-04-03 23:17:37,-71.27,-14.43,42.35,42.35,67.0,56.0,7.806920600000001
Khombole,2249901,SN,2018-04-03 23:00:00,-16.69,14.76,68.0,68.0,77.0,0.0,10.513618000000001
Mariehamn,3041732,AX,2018-04-03 22:50:00,19.93,60.1,30.2,30.2,74.0,0.0,18.007367000000002
Holtzheim,3013206,FR,2018-04-03 23:00:00,7.64,48.56,52.59,53.6,54.0,0.0,25.523485400000002
Raczki,770413,PL,2018-04-03 23:17:38,23.04,52.22,31.5,31.5,91.0,0.0,14.5624794
Fabero,6358616,ES,2018-04-03 23:17:38,-6.63,42.77,43.2,43.2,95.0,92.0,14.316416000000002
Mino,1857062,JP,2018-04-03 23:17:47,136.91,35.54,64.49,64.49,84.0,0.0,8.813543600000001
Postville,4871875,US,2018-04-03 22:55:00,-91.57,43.08,37.96,39.2,32.0,90.0,20.512739800000002
Huejotzingo,3526953,MX,2018-04-03 21:48:00,-98.41,19.16,77.0,77.0,27.0,20.0,11.564979800000001
Morigny-Champigny,6446176,FR,2018-04-03 23:00:00,2.18,48.45,53.35,55.4,76.0,0.0,15.5019942
Tibagon,1682428,PH,2018-04-03 23:00:00,125.86,7.23,77.0,77.0,88.0,20.0,7.5161184
Kharovsk,550512,RU,2018-04-03 23:17:40,40.21,59.95,35.78,35.78,98.0,92.0,46.5954602
Livani,457860,LV,2018-04-03 23:17:49,26.18,56.35,32.18,32.18,83.0,76.0,42.3229048
Dadus,1716294,PH,2018-04-03 23:17:49,124.32,7.06,81.5,81.5,85.0,0.0,12.817666200000001
Kinrooi,2794446,NL,2018-04-03 22:55:00,5.74,51.15,51.55,53.6,76.0,90.0,43.53085240000001
Preston Heights,4906802,US,2018-04-03 22:45:00,-88.08,41.49,43.5,44.6,48.0,1.0,15.5019942
Tennenbronn,2823497,DE,2018-04-03 23:00:00,8.35,48.19,52.65,53.6,54.0,0.0,25.523485400000002
Salpazari,740303,TR,2018-04-03 22:50:00,39.2,40.94,51.8,51.8,66.0,75.0,31.0263578
Harbury,2647502,GB,2018-04-03 22:50:00,-1.46,52.24,48.81,50.0,93.0,40.0,23.0181126
Lethbridge,6053154,CA,2018-04-03 23:00:00,-112.85,49.69,15.8,15.8,78.0,90.0,5.010745600000001
West Cornforth,2634467,GB,2018-04-03 22:50:00,-1.52,54.7,40.57,41.0,100.0,90.0,13.018990800000001
Sultepec de Pedro Ascencio de Alquisiras,3516480,MX,2018-04-03 21:47:00,-99.97,18.86,71.6,71.6,18.0,75.0,13.018990800000001
Sare,186731,KE,2018-04-03 23:17:51,34.53,-0.9,57.15,57.15,89.0,12.0,16.0612292
Ville Platte,4344651,US,2018-04-03 22:35:00,-92.27,30.69,79.41,80.6,57.0,75.0,23.0181126
Krolpa,2883794,DE,2018-04-03 22:50:00,11.54,50.68,50.0,50.0,53.0,0.0,20.512739800000002
Lawrence Park,5197446,US,2018-04-03 22:56:00,-80.02,42.15,37.42,42.8,51.0,1.0,7.5161184
Santo Tomas Hueyotlipan,3516813,MX,2018-04-03 21:48:00,-97.85,18.9,77.0,77.0,27.0,20.0,9.7977972
Essey-les-Nancy,3019607,FR,2018-04-03 23:00:00,6.22,48.7,52.97,55.4,50.0,0.0,23.0181126
Villa Guerrero,3980172,MX,2018-04-03 23:17:45,-103.59,21.98,75.78,75.78,14.0,0.0,10.312293400000001
Qir Moav,250624,JO,2018-04-03 22:00:00,35.7,31.18,55.4,55.4,62.0,0.0,10.513618000000001
Reinach,2661604,CH,2018-04-03 23:00:00,7.59,47.49,45.36,50.0,61.0,0.0,5.010745600000001
Camlidere,749843,TR,2018-04-03 22:50:00,32.48,40.49,32.0,32.0,82.0,0.0,5.010745600000001
Vantaa,830153,FI,2018-04-03 22:50:00,25.04,60.31,32.0,32.0,82.0,75.0,31.0263578
Morris,4902706,US,2018-04-03 22:35:00,-88.42,41.36,43.68,44.6,45.0,1.0,33.5317306
Serilingampalle,7302856,IN,2018-04-03 22:30:00,78.3,17.49,75.2,75.2,78.0,40.0,13.018990800000001
Darlowo,3100637,PL,2018-04-03 23:17:56,16.41,54.42,36.18,36.18,99.0,44.0,21.3180382
Pimenta Bueno,3924908,BR,2018-04-03 23:17:48,-61.19,-11.68,75.51,75.51,94.0,8.0,4.809421
Tselinnoye,689307,UA,2018-04-03 23:17:48,34.18,45.9,40.91,40.91,94.0,0.0,26.3287838
Uzwil,2658209,CH,2018-04-03 22:50:00,9.13,47.44,51.19,60.8,89.0,90.0,43.53085240000001
Broager,2623394,DK,2018-04-03 22:50:00,9.68,54.89,37.13,39.2,86.0,92.0,31.0263578
Clinton,4852022,US,2018-04-03 22:35:00,-90.19,41.84,42.22,42.8,35.0,75.0,20.512739800000002
Ratesti,669116,RO,2018-04-03 23:17:49,25.13,44.73,29.48,29.48,77.0,0.0,5.301547800000001
Acao,1732297,PH,2018-04-03 23:17:49,120.35,16.52,68.67,68.67,91.0,88.0,5.7936746
Mababanaba,1704725,PH,2018-04-03 22:00:00,120.46,15.5,75.2,75.2,88.0,75.0,10.513618000000001
Ronshausen,2845209,DE,2018-04-03 22:20:00,9.86,50.95,46.4,46.4,70.0,75.0,7.5161184
Northglenn,5433124,US,2018-04-03 23:00:00,-104.99,39.91,70.7,73.4,10.0,1.0,67.0410918
Santiago,3871336,CL,2018-04-03 23:00:00,-70.65,-33.44,67.73,69.8,59.0,0.0,28.520985000000003
Al Wajh,108773,SA,2018-04-03 22:00:00,36.47,26.23,73.4,73.4,100.0,12.0,5.010745600000001
Vyaliki Trastsyanets,629829,BY,2018-04-03 22:30:00,27.71,53.85,33.8,33.8,80.0,90.0,20.020613
Kirkel,2890322,DE,2018-04-03 22:56:00,7.23,49.28,54.52,55.4,50.0,88.0,38.5201068
Przeclaw,3088006,PL,2018-04-03 23:00:00,14.47,53.37,37.4,37.4,69.0,0.0,15.5019942
Holiday Shores,4406884,US,2018-04-03 22:14:00,-90.67,37.74,37.4,37.4,100.0,90.0,15.5019942
Mogelsberg,2659648,CH,2018-04-03 22:50:00,9.14,47.36,49.71,60.8,89.0,90.0,43.53085240000001
Taytayan,1724435,PH,2018-04-03 23:17:52,123.99,11.05,79.56,79.56,100.0,64.0,10.804420200000001
Ebnat-Kappel,2660951,CH,2018-04-03 22:50:00,9.12,47.26,47.41,48.2,66.0,0.0,5.010745600000001
Elwood,5067646,US,2018-04-03 22:35:00,-99.86,40.59,51.8,51.8,57.0,1.0,25.523485400000002
Saintry-sur-Seine,2977103,FR,2018-04-03 23:00:00,2.5,48.59,53.33,55.4,76.0,0.0,23.0181126
Nanesti,672518,RO,2018-04-03 23:17:53,27.5,45.55,38.61,38.61,70.0,0.0,13.309793
Champniers,3027064,FR,2018-04-03 23:00:00,0.21,45.71,56.37,57.2,50.0,0.0,38.5201068
Menemeni,735215,GR,2018-04-03 22:50:00,22.91,40.66,46.4,46.4,70.0,20.0,18.007367000000002
Boulay-Moselle,3031182,FR,2018-04-03 23:00:00,6.49,49.18,52.23,55.4,62.0,92.0,38.5201068
Margarita,3173963,IT,2018-04-03 22:55:00,7.68,44.4,50.0,50.0,87.0,40.0,23.0181126
Ziebice,3080226,PL,2018-04-03 23:00:00,17.04,50.6,35.6,35.6,80.0,0.0,20.512739800000002
Saint-Jean-en-Royans,2979239,FR,2018-04-03 23:00:00,5.29,45.02,48.2,48.2,61.0,0.0,20.512739800000002
Hawarden,2647303,GB,2018-04-03 22:50:00,-3.03,53.18,48.2,48.2,87.0,40.0,20.512739800000002
Gulf Shores,4065552,US,2018-04-03 22:56:00,-87.7,30.25,74.77,75.2,83.0,1.0,25.523485400000002
Pervoye Maya,8145969,KG,2018-04-03 23:17:56,73.68,40.63,33.71,33.71,100.0,92.0,5.7936746
Esparza,3114472,ES,2018-04-03 23:00:00,-1.68,42.76,56.44,59.0,41.0,0.0,41.025479600000004
Amangarh,1184569,PK,2018-04-03 23:00:00,71.93,34.01,71.6,71.6,56.0,75.0,46.528352000000005
San Matias,3601874,HN,2018-04-03 23:00:00,-86.63,13.97,78.8,78.8,39.0,75.0,10.513618000000001
Minnehaha,5803622,US,2018-04-03 22:56:00,-122.62,45.66,51.35,53.6,57.0,90.0,7.5608572
Marlow,2643003,GB,2018-04-03 22:50:00,-0.78,51.57,50.25,51.8,93.0,80.0,25.523485400000002
Bolindale,5147840,US,2018-04-03 22:56:00,-80.78,41.21,40.98,42.8,56.0,75.0,15.5019942
Ringmer,2639343,GB,2018-04-03 22:50:00,0.06,50.89,50.02,51.8,93.0,75.0,13.018990800000001
Lorch,2875909,DE,2018-04-03 22:50:00,9.68,48.8,50.65,51.8,53.0,0.0,5.010745600000001
Ulrichsberg,7872121,AT,2018-04-03 22:50:00,13.91,48.68,44.6,44.6,65.0,75.0,5.010745600000001
Neuffen,2865341,DE,2018-04-03 22:50:00,9.38,48.55,50.0,50.0,53.0,0.0,5.010745600000001
Gang,4385654,US,2018-04-03 22:53:00,-91.23,37.21,41.0,41.0,100.0,90.0,20.512739800000002
Garforth,2648875,GB,2018-04-03 22:50:00,-1.39,53.79,43.54,50.0,100.0,40.0,13.018990800000001
Kluczbork,3096003,PL,2018-04-03 23:17:59,18.21,50.97,33.26,33.26,90.0,0.0,10.312293400000001
Indianola,5697383,US,2018-04-03 22:53:00,-100.42,40.24,64.4,64.4,27.0,1.0,33.5317306
Caulfield South,7932643,AU,2018-04-03 23:00:00,145.02,-37.89,61.41,62.6,77.0,90.0,18.007367000000002
Antigo,5244010,US,2018-04-03 23:04:00,-89.15,45.14,29.32,35.6,79.0,90.0,18.007367000000002
Saschiz,667923,RO,2018-04-03 23:00:00,24.96,46.19,32.0,32.0,86.0,56.0,13.018990800000001
Naryan-Mar,523392,RU,2018-04-03 23:18:00,53.09,67.67,10.98,10.98,73.0,44.0,32.8159098
Solferino,3166427,IT,2018-04-03 22:55:00,10.57,45.37,52.41,53.6,76.0,0.0,10.513618000000001
Babra,1278054,IN,2018-04-03 23:18:09,71.3,21.84,72.86,72.86,65.0,0.0,22.816788
Trazo,3107546,ES,2018-04-03 23:00:00,-8.53,43.02,51.85,53.6,93.0,75.0,36.0371034
Wackersdorf,6556712,DE,2018-04-03 22:56:00,12.18,49.31,44.53,46.4,70.0,40.0,9.3056704
Taneytown,4370931,US,2018-04-03 22:56:00,-77.17,39.66,45.23,46.4,70.0,90.0,7.3147938
Hood River,5731777,US,2018-04-03 22:53:00,-121.52,45.71,53.6,53.6,34.0,1.0,54.0444704
Sendriceni,667395,RO,2018-04-03 23:00:00,26.3,47.95,35.6,35.6,74.0,0.0,15.5019942
Glenfield,2644667,GB,2018-04-03 22:50:00,-1.21,52.65,48.2,48.2,93.0,20.0,33.5317306
Simonton Lake,4926449,US,2018-04-03 22:37:00,-85.98,41.75,41.65,44.6,35.0,40.0,18.007367000000002
Saint-Max,2978105,FR,2018-04-03 23:00:00,6.21,48.7,52.97,55.4,50.0,0.0,23.0181126
Siofok,3045332,HU,2018-04-03 22:45:00,18.06,46.9,51.8,51.8,53.0,0.0,31.0263578
Hamilton Square,5203809,US,2018-04-03 22:55:00,-75.29,40.92,40.55,42.8,65.0,1.0,15.5019942
Managua,3617763,NI,2018-04-03 22:00:00,-86.27,12.15,89.6,89.6,46.0,20.0,41.025479600000004
Grindelwald,2660498,CH,2018-04-03 22:50:00,8.04,46.62,47.55,55.4,87.0,90.0,2.5053728000000004
Sriramnagar,1255625,IN,2018-04-03 22:30:00,78.26,17.27,75.2,75.2,78.0,40.0,13.018990800000001
Altamira,3407882,BR,2018-04-03 22:00:00,-52.21,-3.2,82.4,82.4,78.0,40.0,7.5161184
Dronero,3177474,IT,2018-04-03 23:18:05,7.37,44.47,29.88,29.88,90.0,56.0,1.2974252
Praia da Vitoria,3372760,PT,2018-04-03 23:00:00,-27.07,38.73,59.0,59.0,67.0,20.0,71.8505128
Aleksandrovsk-Sakhalinskiy,2127282,RU,2018-04-03 23:18:05,142.16,50.9,32.0,32.0,76.0,0.0,37.8266554
West Monroe,4345850,US,2018-04-03 22:35:00,-92.15,32.52,81.82,82.4,54.0,40.0,13.018990800000001
Miehlen,2871225,DE,2018-04-03 22:57:00,7.83,50.22,49.08,50.0,76.0,75.0,7.5161184
General-Toshevo,731464,BG,2018-04-03 23:00:00,28.03,43.7,41.0,41.0,75.0,0.0,7.5161184
Aliganj,1279023,IN,2018-04-03 23:18:06,79.17,27.49,71.37,71.37,62.0,0.0,6.8002976
Berlare,2802155,BE,2018-04-03 22:55:00,4.0,51.03,50.34,51.8,93.0,92.0,23.0181126
Eureka,5563397,US,2018-04-03 22:53:00,-124.16,40.8,54.9,57.2,47.0,1.0,38.5201068
San Juan,3837213,AR,2018-04-03 23:18:08,-68.53,-31.54,60.26,60.26,82.0,0.0,2.5501116
San Jose,1689431,PH,2018-04-03 23:18:11,120.99,15.79,71.78,71.78,100.0,76.0,6.0621074
Salavan,737140,TR,2018-04-03 23:18:11,41.37,40.93,26.46,26.46,96.0,92.0,3.802798
Sylva,4494335,US,2018-04-03 22:54:00,-83.23,35.37,72.79,75.2,25.0,1.0,28.520985000000003
Neietsu,1832257,KR,2018-04-03 23:18:12,128.47,37.18,60.26,60.26,70.0,36.0,8.052984
Makkum,2751254,NL,2018-04-03 22:55:00,5.4,53.06,46.74,48.2,93.0,90.0,20.512739800000002
Mayfield,2650225,GB,2018-04-03 22:50:00,-3.04,55.87,35.6,35.6,93.0,90.0,46.528352000000005
Ixtapan de la Sal,3526681,MX,2018-04-03 21:47:00,-99.68,18.84,80.73,91.4,21.0,40.0,10.513618000000001
San Giovanni la Punta,6541970,IT,2018-04-03 22:50:00,15.1,37.58,48.72,50.0,87.0,0.0,13.018990800000001
Antegnate,3183041,IT,2018-04-03 22:55:00,9.79,45.49,51.82,53.6,76.0,40.0,7.5161184
Dumbravita,678689,RO,2018-04-03 23:18:13,25.43,45.77,25.43,25.43,81.0,0.0,4.809421
Manosque,2996180,FR,2018-04-03 23:00:00,5.78,43.83,54.19,55.4,62.0,0.0,28.520985000000003
Ilomantsi,656709,FI,2018-04-03 22:50:00,30.93,62.68,30.2,30.2,100.0,90.0,7.5161184
Ciresu,681596,RO,2018-04-03 23:18:14,27.35,44.95,41.67,41.67,75.0,0.0,12.057106600000001
Macin,674230,RO,2018-04-03 23:00:00,28.14,45.24,39.2,39.2,86.0,0.0,20.512739800000002
Saint Charles,4908737,US,2018-04-03 22:40:00,-88.31,41.91,42.78,44.6,44.0,1.0,28.520985000000003
Rikaze,1279715,CN,2018-04-03 23:18:23,88.88,29.25,4.05,4.05,63.0,0.0,7.5608572
Dierdorf,2937280,DE,2018-04-03 22:50:00,7.66,50.55,48.2,48.2,70.0,0.0,15.5019942
Naantali,645212,FI,2018-04-03 22:50:00,22.03,60.45,24.8,24.8,92.0,0.0,18.007367000000002
Columbia,4381982,US,2018-04-03 22:35:00,-92.33,38.95,34.48,35.6,85.0,90.0,18.007367000000002
San Miguel,3430545,AR,2018-04-03 22:00:00,-58.72,-34.54,70.39,71.6,73.0,0.0,25.523485400000002
Vila de Porto Santo,2261651,PT,2018-04-03 23:00:00,-16.33,33.05,60.8,60.8,82.0,40.0,23.0181126
Bolintin Vale,684266,RO,2018-04-03 23:00:00,25.76,44.45,39.2,39.2,69.0,0.0,2.5053728000000004
Piedade,3453926,BR,2018-04-03 23:18:19,-47.43,-23.71,72.0,72.0,77.0,8.0,11.050483600000002
Clydebank,2652730,GB,2018-04-03 22:50:00,-4.41,55.92,35.6,35.6,93.0,90.0,41.025479600000004
Gaillard,3016817,FR,2018-04-03 23:00:00,6.21,46.18,48.72,51.8,53.0,75.0,13.018990800000001
Moralzarzal,3116175,ES,2018-04-03 23:00:00,-3.97,40.68,54.48,55.4,82.0,75.0,18.007367000000002
Weil der Stadt,2812625,DE,2018-04-03 22:50:00,8.87,48.75,50.97,51.8,53.0,0.0,5.010745600000001
Turagurghon,1512549,UZ,2018-04-03 22:30:00,71.51,41.0,57.2,57.2,71.0,90.0,5.010745600000001
Garden City,5118226,US,2018-04-03 23:15:00,-73.63,40.73,40.55,42.8,64.0,1.0,7.5161184
Zuerich (Kreis 8) / Seefeld,6295509,CH,2018-04-03 22:50:00,8.56,47.35,46.72,48.2,66.0,0.0,5.010745600000001
Uttoxeter,2635043,GB,2018-04-03 22:50:00,-1.86,52.9,48.2,48.2,93.0,20.0,33.5317306
Nancha,2035669,CN,2018-04-03 23:18:31,129.26,47.14,30.11,30.11,33.0,0.0,17.3139156
Zdvinsk,1485312,RU,2018-04-03 23:18:31,78.67,54.7,24.53,24.53,91.0,76.0,25.076097400000002
Nusco,3172134,IT,2018-04-03 22:55:00,15.08,40.89,44.29,48.2,69.0,0.0,20.512739800000002
San Francisco,5391959,US,2018-04-03 22:54:00,-122.42,37.78,67.55,73.4,55.0,1.0,31.0263578
Merlara,3173544,IT,2018-04-03 22:50:00,11.44,45.17,53.6,53.6,66.0,40.0,13.018990800000001
Chatrapur,1274533,IN,2018-04-03 23:18:32,84.98,19.35,81.68,81.68,100.0,0.0,22.816788
Belo,1625420,ID,2018-04-03 23:00:00,116.82,-8.92,77.0,77.0,94.0,20.0,2.5053728000000004
Serbanesti,667380,RO,2018-04-03 23:00:00,24.7,44.33,42.8,42.8,60.0,0.0,13.018990800000001
Leshukonskoye,535839,RU,2018-04-03 23:18:25,45.76,64.9,33.08,33.08,86.0,92.0,26.3287838
Titesti,664902,RO,2018-04-03 23:18:34,25.0,45.02,29.48,29.48,77.0,0.0,5.301547800000001
Ban Pong,1155139,TH,2018-04-03 23:18:26,99.87,13.82,72.41,72.41,94.0,0.0,6.8002976
Jamabalod,1710336,PH,2018-04-03 23:18:34,122.62,10.88,77.09,77.09,88.0,12.0,14.070352600000001
Fife,5794328,US,2018-04-03 22:58:00,-122.36,47.24,50.54,53.6,61.0,75.0,28.520985000000003
Schiltigheim,2975446,FR,2018-04-03 23:00:00,7.75,48.61,52.63,53.6,54.0,0.0,25.523485400000002
Costeiu,680591,RO,2018-04-03 23:00:00,21.85,45.74,38.35,39.2,93.0,0.0,20.512739800000002
Biga,750605,TR,2018-04-03 23:18:27,27.24,40.23,41.0,41.0,85.0,0.0,5.301547800000001
Tabuk,1684803,PH,2018-04-03 23:09:56,121.44,17.41,66.83,66.83,96.0,76.0,3.802798
Otradnoye,513898,RU,2018-04-03 22:30:00,30.8,59.77,35.6,35.6,93.0,90.0,15.009867400000001
Novokayakent,518764,RU,2018-04-03 22:30:00,47.99,42.39,44.6,44.6,93.0,90.0,25.008989200000002
Zaliztsi,687787,UA,2018-04-03 23:18:28,25.38,49.8,31.28,31.28,91.0,0.0,15.8151658
Saint-Lambert-la-Potherie,2978983,FR,2018-04-03 23:00:00,-0.68,47.48,53.6,53.6,76.0,0.0,20.512739800000002
Lakheri,1265246,IN,2018-04-03 23:18:28,76.19,25.67,66.06,66.06,33.0,0.0,9.059607
Ferrara,3177090,IT,2018-04-03 22:50:00,11.62,44.84,55.4,55.4,62.0,0.0,20.512739800000002
Biere,2949103,DE,2018-04-03 23:18:29,11.65,51.97,41.9,41.9,85.0,92.0,20.311415200000003
Villeneuve-de-Marsan,2968569,FR,2018-04-03 23:00:00,-0.31,43.89,52.43,55.4,81.0,0.0,15.5019942
Cagli,3181277,IT,2018-04-03 22:45:00,12.65,43.55,52.34,57.2,67.0,0.0,23.0181126
Egvekinot,4031742,RU,2018-04-03 23:18:29,-179.17,66.32,33.89,33.89,90.0,12.0,6.8002976
Starkville,4447161,US,2018-04-03 22:55:00,-88.82,33.45,77.68,78.8,44.0,75.0,18.007367000000002
Oviedo,3114711,ES,2018-04-03 23:00:00,-5.84,43.36,55.4,55.4,62.0,40.0,5.010745600000001
La Talaudiere,3006320,FR,2018-04-03 23:00:00,4.43,45.48,54.84,55.4,37.0,0.0,43.53085240000001
Gourbeyre,2992890,FR,2018-04-03 23:00:00,3.81,45.59,52.66,53.6,37.0,0.0,43.53085240000001
Dumbarton,2650802,GB,2018-04-03 22:50:00,-4.57,55.94,35.6,35.6,93.0,90.0,41.025479600000004
Krasnoznamenskoe,1521998,KZ,2018-04-03 23:18:30,69.47,51.05,20.84,20.84,79.0,76.0,10.312293400000001
Beloyarsk,1510454,RU,2018-04-03 22:30:00,83.9,53.45,23.0,23.0,67.0,40.0,15.009867400000001
Chhatarpur,1274337,IN,2018-04-03 23:18:30,79.59,24.92,68.81,68.81,59.0,0.0,9.5517338
Setauket-East Setauket,7258965,US,2018-04-03 22:56:00,-73.1,40.93,38.66,41.0,64.0,75.0,10.513618000000001
Inowroclaw,3097872,PL,2018-04-03 23:00:00,18.26,52.8,30.2,30.2,86.0,0.0,2.5053728000000004
Arambagh,1278466,IN,2018-04-03 23:18:31,87.79,22.88,63.05,63.05,89.0,0.0,6.3081708
Akhtubinsk,583798,RU,2018-04-03 23:18:40,46.17,48.29,43.02,43.02,75.0,44.0,31.831656200000005
Banguero,1727089,PH,2018-04-03 23:18:40,121.78,17.02,71.96,71.96,100.0,88.0,8.299047400000001
Bawana,1276663,IN,2018-04-03 22:30:00,77.03,28.8,77.0,77.0,50.0,20.0,10.513618000000001
Rotorua,6241325,NZ,2018-04-03 23:18:41,176.25,-38.14,66.06,66.06,68.0,36.0,8.299047400000001
Huetamo de Nunez,4004555,MX,2018-04-03 23:18:33,-100.88,18.58,94.68,94.68,23.0,0.0,16.0612292
Salsig,668128,RO,2018-04-03 23:00:00,23.3,47.53,37.4,37.4,86.0,0.0,18.007367000000002
Farmingdale,4964021,US,2018-04-03 21:56:00,-69.77,44.24,36.66,39.2,59.0,1.0,13.018990800000001
Mount Carmel,4244967,US,2018-04-03 22:35:00,-87.76,38.41,45.63,48.2,81.0,90.0,15.5019942
Nisko,763829,PL,2018-04-03 23:00:00,22.14,50.52,32.0,32.0,88.0,0.0,5.010745600000001
Jassans-Riottier,3012444,FR,2018-04-03 23:00:00,4.76,45.99,54.77,55.4,37.0,0.0,49.03372480000001
Keffi,2334652,NG,2018-04-03 23:18:34,7.88,8.85,79.38,79.38,68.0,12.0,23.823411000000004
Aduthurai,1279318,IN,2018-04-03 23:18:43,79.48,11.02,74.43,74.43,86.0,24.0,11.318916399999999
Kormend,3049430,HU,2018-04-03 23:18:35,16.61,47.01,45.81,45.81,67.0,0.0,34.583092400000005
Vallejuelo,3492123,DO,2018-04-03 22:00:00,-71.33,18.65,82.4,82.4,61.0,20.0,38.5201068
Dechy,3021663,FR,2018-04-03 23:00:00,3.13,50.35,50.0,50.0,93.0,0.0,33.5317306
Baklan,322250,TR,2018-04-03 22:50:00,29.61,37.98,42.8,42.8,87.0,0.0,5.010745600000001
Coopersville,4989596,US,2018-04-03 22:35:00,-85.93,43.06,38.35,42.8,25.0,90.0,7.5161184
Benaguasil,2521148,ES,2018-04-03 23:00:00,-0.59,39.59,51.8,51.8,81.0,0.0,5.010745600000001
Dos Palos,5343728,US,2018-04-03 22:53:00,-120.63,36.99,75.83,78.8,44.0,1.0,23.0181126
San Policarpio,1688697,PH,2018-04-03 23:18:36,124.56,12.07,79.43,79.43,100.0,8.0,14.808542800000001
Saint-Christophe-du-Bois,6613890,FR,2018-04-03 23:00:00,-0.94,47.03,51.8,51.8,81.0,44.0,23.0181126
Indian Springs Village,4068933,US,2018-04-03 22:55:00,-86.75,33.36,75.85,77.0,44.0,1.0,20.512739800000002
Masakin,71136,YE,2018-04-03 23:18:37,47.68,15.32,62.91,62.91,48.0,0.0,5.7936746
Saligao,1257611,IN,2018-04-03 23:18:37,73.77,15.55,74.07,74.07,100.0,0.0,18.3205386
Gardnerville,5504468,US,2018-04-03 22:55:00,-119.75,38.94,59.27,64.4,30.0,40.0,20.512739800000002
Bishop,5328808,US,2018-04-03 22:56:00,-118.39,37.37,66.31,75.2,11.0,1.0,43.53085240000001
Derbent,566532,RU,2018-04-03 23:18:38,48.29,42.06,37.17,37.17,72.0,20.0,5.0554844
Boali,2388720,CF,2018-04-03 22:00:00,18.11,4.81,77.0,77.0,88.0,0.0,5.010745600000001
Nouvoitou,6432773,FR,2018-04-03 23:00:00,-1.55,48.04,51.8,51.8,87.0,80.0,20.512739800000002
Bitadton,1724747,PH,2018-04-03 23:18:39,122.09,11.5,78.12,78.12,100.0,12.0,16.3072926
Central City,5065429,US,2018-04-03 22:56:00,-98.0,41.12,34.12,37.4,74.0,1.0,36.0371034
Dompay,1714106,PH,2018-04-03 23:18:39,120.39,15.88,75.83,75.83,86.0,64.0,3.802798
Chaparral,3686793,CO,2018-04-03 23:18:40,-75.48,3.72,61.79,61.79,100.0,48.0,3.802798
Bedarieux,3033913,FR,2018-04-03 23:00:00,3.16,43.62,54.55,55.4,87.0,90.0,25.523485400000002
Monteiro,3394549,BR,2018-04-03 23:18:49,-37.12,-7.89,68.63,68.63,97.0,64.0,6.8002976
Resaro,2682706,SE,2018-04-03 22:50:00,18.33,59.43,23.88,24.8,62.0,0.0,2.5053728000000004
Apollosa,3182985,IT,2018-04-03 22:55:00,14.71,41.09,45.25,48.2,69.0,0.0,20.512739800000002
Schirmitz,2839074,DE,2018-04-03 22:56:00,12.17,49.65,44.76,46.4,75.0,90.0,7.5608572
Unterbreizbach,2819892,DE,2018-04-03 22:20:00,9.98,50.82,46.4,46.4,70.0,75.0,7.5161184
Salitral,3621849,CR,2018-04-03 22:00:00,-84.12,9.79,78.85,80.6,47.0,20.0,31.0263578
Costesti,680581,RO,2018-04-03 23:18:42,24.88,44.66,38.21,38.21,66.0,0.0,6.554234200000001
Moralillo,3522973,MX,2018-04-03 21:44:00,-97.91,22.23,80.6,80.6,74.0,40.0,38.5201068
Broek op Langedijk,2758245,NL,2018-04-03 22:55:00,4.8,52.68,46.83,48.2,93.0,75.0,36.0371034
Kalawit,1679429,PH,2018-04-03 23:18:43,122.53,7.91,79.61,79.61,88.0,8.0,8.5674802
Saccolongo,3168732,IT,2018-04-03 22:55:00,11.75,45.4,52.27,53.6,87.0,75.0,10.513618000000001
Saint Matthews,4594258,US,2018-04-03 22:56:00,-80.78,33.66,80.6,80.6,28.0,75.0,23.0181126
Imus,1710915,PH,2018-04-03 23:00:00,120.93,14.42,80.6,80.6,83.0,40.0,2.5053728000000004
Blackhawk,5329204,US,2018-04-03 22:56:00,-121.91,37.82,69.46,78.8,53.0,1.0,20.512739800000002
York,2633352,GB,2018-04-03 22:50:00,-1.08,53.96,44.24,50.0,100.0,40.0,13.018990800000001
Royal Oak,5007804,US,2018-04-03 22:36:00,-83.14,42.49,39.96,42.8,35.0,1.0,18.007367000000002
Micco,4164253,US,2018-04-03 22:56:00,-80.5,27.85,75.56,77.0,73.0,1.0,28.520985000000003
Oberammergau,2861422,DE,2018-04-03 22:50:00,11.07,47.6,47.17,53.6,37.0,20.0,31.0263578
Monticello,5038045,US,2018-04-03 22:48:00,-93.79,45.31,29.66,30.2,86.0,90.0,20.512739800000002
Funehiki,2112903,JP,2018-04-03 22:00:00,140.58,37.43,51.8,51.8,100.0,75.0,13.018990800000001
Bellingham,5786899,US,2018-04-03 23:00:00,-122.48,48.75,49.55,51.8,43.0,20.0,33.5317306
Bologna,3181928,IT,2018-04-03 22:50:00,11.34,44.49,55.4,55.4,62.0,0.0,20.512739800000002
Bankaw,1727148,PH,2018-04-03 23:18:46,120.01,5.02,82.85,82.85,100.0,0.0,17.0678522
Uster,2658216,CH,2018-04-03 22:50:00,8.72,47.35,46.96,48.2,66.0,0.0,5.010745600000001
Poman,3840809,AR,2018-04-03 23:18:55,-66.22,-28.39,55.58,55.58,95.0,80.0,1.5434885999999999
Alta Sierra,5323500,US,2018-04-03 22:58:00,-121.05,39.14,71.17,75.2,30.0,1.0,18.007367000000002
Joliet,4898015,US,2018-04-03 22:45:00,-88.08,41.52,43.27,44.6,48.0,1.0,15.5019942
Morgans Point Resort,4712319,US,2018-04-03 22:58:00,-97.46,31.15,56.07,57.2,87.0,75.0,15.5019942
Minonk,4902382,US,2018-04-03 22:35:00,-89.03,40.9,40.86,44.6,60.0,90.0,23.0181126
Saint-Louis-de-Montferrand,2978726,FR,2018-04-03 23:00:00,-0.53,44.95,54.41,55.4,71.0,0.0,25.523485400000002
Garoua,2231320,CM,2018-04-03 22:00:00,13.39,9.31,91.4,91.4,18.0,0.0,12.303170000000001
Pine Hills,2166675,AU,2018-04-03 23:18:57,145.38,-35.57,65.66,65.66,57.0,0.0,25.5682242
Cres,3177695,IT,2018-04-03 22:55:00,7.49,45.51,33.55,48.2,87.0,40.0,5.010745600000001
Santeny,6452033,FR,2018-04-03 23:00:00,2.58,48.73,53.33,55.4,76.0,0.0,23.0181126
Eutaw,4060991,US,2018-04-03 22:53:00,-87.89,32.84,78.8,78.8,47.0,1.0,25.523485400000002
Ciuhoiu,681458,RO,2018-04-03 23:00:00,22.12,47.23,38.21,39.2,85.0,0.0,15.5019942
Burela de Cabo,3127476,ES,2018-04-03 23:18:49,-7.4,43.65,55.08,55.08,92.0,56.0,40.3320282
Kiknur,548747,RU,2018-04-03 23:18:50,47.21,57.3,32.81,32.81,90.0,56.0,27.827533600000002
Klundert,6251994,NL,2018-04-03 22:55:00,4.54,51.66,51.08,51.8,87.0,90.0,25.523485400000002
Kohror Pakka,1175446,PK,2018-04-03 23:18:59,71.92,29.62,72.9,72.9,72.0,48.0,32.8159098
Masterton,2206890,NZ,2018-04-03 23:18:59,175.66,-40.95,66.87,66.87,69.0,68.0,36.0818422
Hallbergmoos,6556203,DE,2018-04-03 22:50:00,11.74,48.32,48.54,51.8,65.0,0.0,15.5019942
Studley,2635427,GB,2018-04-03 22:50:00,-2.05,51.44,48.92,50.0,93.0,90.0,23.0181126
Sohna,1255870,IN,2018-04-03 22:30:00,77.07,28.25,77.0,77.0,50.0,20.0,10.513618000000001
Plesoiu,670494,RO,2018-04-03 23:00:00,24.27,44.47,42.8,42.8,60.0,0.0,13.018990800000001
Amstelveen,2759798,NL,2018-04-03 22:55:00,4.85,52.3,48.81,50.0,100.0,90.0,23.0181126
Castle Hills,4679437,US,2018-04-03 22:56:00,-98.52,29.52,82.42,87.8,57.0,75.0,41.025479600000004
Kikerino,548763,RU,2018-04-03 22:30:00,29.63,59.47,35.6,35.6,93.0,90.0,15.009867400000001
Kirrweiler,2890277,DE,2018-04-03 22:56:00,7.5,49.63,50.63,55.4,50.0,1.0,23.0181126
Trissino,3165157,IT,2018-04-03 22:55:00,11.37,45.56,52.41,53.6,66.0,40.0,13.018990800000001
Vanzago,3164727,IT,2018-04-03 22:50:00,8.99,45.53,50.43,53.6,58.0,75.0,2.5053728000000004
Lostau,2875785,DE,2018-04-03 23:19:01,11.74,52.21,40.73,40.73,86.0,92.0,21.810165
Schoneck,2836772,DE,2018-04-03 23:00:00,12.32,50.38,41.0,41.0,77.0,0.0,13.018990800000001
Morrow,4210254,US,2018-04-03 22:56:00,-84.34,33.58,78.13,80.6,25.0,75.0,23.0181126
Mosquera,3674292,CO,2018-04-03 22:00:00,-74.23,4.71,57.2,57.2,87.0,40.0,18.007367000000002
Ihiala,2338497,NG,2018-04-03 23:19:02,6.86,5.86,74.7,74.7,100.0,80.0,11.811043200000002
Pino Torinese,6534250,IT,2018-04-03 22:50:00,7.78,45.04,48.2,48.2,87.0,40.0,5.010745600000001
Petone,6244864,NZ,2018-04-03 23:00:00,174.88,-41.23,69.8,69.8,77.0,76.0,46.528352000000005
Salamanca,3111108,ES,2018-04-03 23:18:55,-5.66,40.97,47.21,47.21,90.0,48.0,33.5764694
Pfaeffikon / Pfaeffikon (Dorfkern),6293977,CH,2018-04-03 22:50:00,8.78,47.37,46.96,48.2,66.0,0.0,5.010745600000001
Krian,1639356,ID,2018-04-03 23:18:55,112.58,-7.41,78.12,78.12,100.0,20.0,5.7936746
Konstantinovskaya,545275,RU,2018-04-03 23:18:55,40.73,44.83,45.5,45.5,88.0,68.0,52.0983326
Kayan,1319533,MM,2018-04-03 22:30:00,96.56,16.91,80.6,80.6,78.0,40.0,13.018990800000001
Nayoro,2128983,JP,2018-04-03 23:19:05,142.46,44.36,43.11,43.11,96.0,92.0,20.825911400000003
Caranan,1718495,PH,2018-04-03 23:18:56,123.02,13.52,78.48,78.48,91.0,48.0,15.5691024
Wolfforth,5534109,US,2018-04-03 22:53:00,-102.01,33.51,82.4,82.4,18.0,20.0,43.53085240000001
Durazno,3442727,UY,2018-04-03 23:19:05,-56.52,-33.38,66.51,66.51,79.0,8.0,22.816788
Banganapalle,1277330,IN,2018-04-03 23:18:57,78.23,15.32,73.13,73.13,87.0,0.0,14.316416000000002
Kafr Jammal,283373,IL,2018-04-03 22:50:00,35.04,32.23,62.58,64.4,77.0,20.0,7.5161184
Taulabe,3600966,HN,2018-04-03 23:18:58,-87.97,14.7,78.12,78.12,53.0,0.0,5.0554844
Desa,679464,RO,2018-04-03 23:18:58,23.03,43.87,38.3,38.3,80.0,0.0,6.3081708
Faches-Thumesnil,6614164,FR,2018-04-03 23:00:00,3.07,50.59,50.49,51.8,93.0,0.0,33.5317306
Offingen,3220790,DE,2018-04-03 22:50:00,9.56,48.16,49.42,50.0,61.0,92.0,7.5161184
Velaux,6427095,FR,2018-04-03 23:00:00,5.25,43.52,54.03,55.4,47.0,0.0,20.512739800000002
Le Soler,3000139,FR,2018-04-03 23:00:00,2.8,42.68,50.0,50.0,93.0,0.0,7.5161184
Wesselsbron,940424,ZA,2018-04-03 23:18:59,26.36,-27.85,59.45,59.45,99.0,80.0,7.046361
Tretiy Severnyy,496290,RU,2018-04-03 23:18:59,59.96,60.21,14.85,14.85,71.0,80.0,5.7936746
Sosva,1491267,RU,2018-04-03 23:18:59,61.86,59.17,13.19,13.19,66.0,44.0,7.5608572
Nangomba,877597,TZ,2018-04-03 23:19:00,38.52,-10.9,70.11,70.11,97.0,56.0,6.554234200000001
Concepcion,3683538,CO,2018-04-03 23:19:00,-73.66,9.56,72.14,72.14,100.0,76.0,5.0554844
Bilyarsk,576342,RU,2018-04-03 23:19:09,50.39,54.98,29.84,29.84,90.0,24.0,31.831656200000005
Ngudu,151599,TZ,2018-04-03 23:19:09,33.34,-2.97,61.25,61.25,94.0,48.0,7.3147938
San Francisco,5391959,US,2018-04-03 22:54:00,-122.42,37.78,67.55,73.4,55.0,1.0,31.0263578
Portacomaro,6535515,IT,2018-04-03 22:50:00,8.26,44.96,48.2,48.2,87.0,40.0,5.010745600000001
Stonehouse,2636811,GB,2018-04-03 22:50:00,-2.28,51.75,49.08,50.0,87.0,75.0,13.018990800000001
Salamina,3670370,CO,2018-04-03 22:00:00,-75.49,5.41,57.2,57.2,93.0,90.0,5.010745600000001
Lyubuchany,532477,RU,2018-04-03 22:30:00,37.55,55.25,33.8,33.8,95.0,90.0,30.019734800000002
Necaxa,3522777,MX,2018-04-03 21:40:00,-98.0,20.22,87.8,87.8,62.0,5.0,20.512739800000002
Schriever,4341007,US,2018-04-03 22:35:00,-90.81,29.74,79.27,80.6,57.0,1.0,23.0181126
Turiacu,3665361,BR,2018-04-03 23:19:03,-63.0,-5.01,81.18,81.18,79.0,20.0,12.817666200000001
Le Marin,3570426,MQ,2018-04-03 22:30:00,-60.87,14.47,79.93,80.6,74.0,0.0,18.007367000000002
Abscon,3038731,FR,2018-04-03 23:00:00,3.3,50.33,50.0,50.0,93.0,0.0,33.5317306
Gresik,1643776,ID,2018-04-03 23:19:04,112.66,-7.16,78.12,78.12,100.0,20.0,5.7936746
Urucuca,3445690,BR,2018-04-03 22:00:00,-39.28,-14.59,82.4,82.4,74.0,20.0,15.5019942
Meckesheim,2872580,DE,2018-04-03 23:19:04,8.82,49.32,48.74,48.74,90.0,92.0,24.830034
Yecapixtla,3514278,MX,2018-04-03 22:48:00,-98.86,18.88,80.58,89.6,19.0,75.0,5.010745600000001
Palmer Lake,5433828,US,2018-04-03 23:10:00,-104.92,39.12,69.57,75.2,7.0,20.0,33.5317306
Danielskuil,1011918,ZA,2018-04-03 23:19:05,23.54,-28.19,58.28,58.28,91.0,88.0,10.066230000000001
Balucawi,1727937,PH,2018-04-03 23:19:14,123.84,12.2,80.06,80.06,98.0,24.0,22.056228400000002
Goldberg,2919366,DE,2018-04-03 22:50:00,12.09,53.59,35.6,35.6,80.0,75.0,23.0181126
Columbiana,4056427,US,2018-04-03 22:55:00,-86.61,33.18,76.12,77.0,44.0,1.0,20.512739800000002
Wallisellen / Rieden,6291375,CH,2018-04-03 22:50:00,8.6,47.42,46.71,48.2,66.0,0.0,5.010745600000001
Marshall,4243951,US,2018-04-03 22:35:00,-87.69,39.39,43.2,46.4,81.0,90.0,23.0181126
Rastu,669128,RO,2018-04-03 23:00:00,23.28,43.88,42.8,42.8,60.0,0.0,13.018990800000001
Hazorasp,1513957,UZ,2018-04-03 22:30:00,61.08,41.32,48.2,48.2,64.0,0.0,25.523485400000002
Bowdon,2655069,GB,2018-04-03 22:50:00,-2.37,53.38,48.2,48.2,87.0,75.0,13.018990800000001
Izberbash,554894,RU,2018-04-03 22:30:00,47.86,42.57,44.6,44.6,93.0,90.0,25.008989200000002
Beverly Cove,4930511,US,2018-04-03 22:56:00,-70.85,42.55,39.83,42.8,74.0,20.0,20.512739800000002
Pensacola,4168228,US,2018-04-03 22:55:00,-87.22,30.42,75.67,78.8,83.0,1.0,25.523485400000002
Mogapi,933333,BW,2018-04-03 23:19:17,27.84,-22.32,67.32,67.32,66.0,64.0,22.570724600000002
Wolverine Lake,5015416,US,2018-04-03 23:00:00,-83.47,42.56,40.12,42.8,47.0,90.0,10.513618000000001
Khymchyn,706434,UA,2018-04-03 23:19:18,25.17,48.39,30.2,30.2,89.0,0.0,11.318916399999999
San Martino di Venezze,3168017,IT,2018-04-03 22:55:00,11.87,45.13,51.82,53.6,87.0,75.0,10.513618000000001
Panalipan,1695734,PH,2018-04-03 23:00:00,124.02,10.65,80.6,80.6,78.0,40.0,10.513618000000001
Uirauna,3385850,BR,2018-04-03 23:19:10,-38.41,-6.52,72.45,72.45,92.0,36.0,1.2974252
Trudarmeyskiy,1489167,RU,2018-04-03 23:19:19,86.41,54.13,19.71,19.71,86.0,76.0,13.5558564
Garoua Boulai,2231319,CM,2018-04-03 23:19:11,14.55,5.88,67.23,67.23,93.0,48.0,14.070352600000001
Bernin,3033269,FR,2018-04-03 23:00:00,5.86,45.27,47.3,48.2,81.0,0.0,7.5161184
Leun,2878351,DE,2018-04-03 22:57:00,8.36,50.55,49.14,50.0,76.0,75.0,7.5161184
Cartagena,2520058,ES,2018-04-03 23:15:27,-1.0,37.63,45.0,45.0,89.0,32.0,5.7936746
Masaguisi,1700786,PH,2018-04-03 23:19:12,121.45,12.75,74.21,74.21,96.0,12.0,6.3081708
Basiawan,1978472,PH,2018-04-03 23:00:00,125.49,6.53,77.0,77.0,88.0,20.0,7.5161184
South Huntington,5138892,US,2018-04-03 22:56:00,-73.4,40.82,39.61,42.8,64.0,1.0,7.5161184
Stretford,2636663,GB,2018-04-03 22:50:00,-2.32,53.45,46.27,48.2,87.0,75.0,13.018990800000001
Deux-Montagnes,5938513,CA,2018-04-03 23:00:00,-73.9,45.54,37.99,39.2,41.0,20.0,33.5317306
Shumen,727233,BG,2018-04-03 23:19:21,26.94,43.27,40.5,40.5,60.0,0.0,10.312293400000001
Dicabisagan,1715015,PH,2018-04-03 23:19:13,122.42,17.08,73.35,73.35,100.0,100.0,16.0612292
Kakhun,554444,RU,2018-04-03 22:00:00,43.88,43.54,42.8,42.8,93.0,90.0,9.9991218
Neufahrn bei Freising,2865376,DE,2018-04-03 22:50:00,11.66,48.31,48.54,51.8,65.0,0.0,15.5019942
Mufulira,905395,ZM,2018-04-03 23:19:22,28.24,-12.55,64.58,64.58,97.0,92.0,11.318916399999999
Mission,4711725,US,2018-04-03 22:55:00,-98.33,26.22,84.18,86.0,58.0,1.0,59.055216
Ratekau,2850235,DE,2018-04-03 22:50:00,10.73,53.95,44.6,44.6,75.0,0.0,23.0181126
Affeltrangen,2661844,CH,2018-04-03 22:50:00,9.03,47.53,51.22,60.8,66.0,0.0,5.010745600000001
Vitez,3187590,BA,2018-04-03 23:00:00,17.79,44.15,37.4,37.4,86.0,0.0,2.5053728000000004
Santo Domingo Xenacoj,3589072,GT,2018-04-03 22:00:00,-90.7,14.68,75.2,75.2,60.0,40.0,25.523485400000002
Skawica,3085809,PL,2018-04-03 23:00:00,19.63,49.68,32.0,32.0,80.0,0.0,7.5161184
Aklera,1279115,IN,2018-04-03 23:19:16,76.57,24.41,65.88,65.88,49.0,0.0,7.806920600000001
Chandra,1185165,BD,2018-04-03 23:00:00,90.24,24.05,75.2,75.2,83.0,75.0,6.0621074
Yauco,4568917,PR,2018-04-03 22:50:00,-66.85,18.04,77.0,77.0,73.0,75.0,20.512739800000002
Stiring-Wendel,2973795,DE,2018-04-03 23:00:00,6.93,49.2,53.6,55.4,50.0,88.0,38.5201068
Chunskiy,1507636,RU,2018-04-03 23:19:26,99.63,56.08,18.05,18.05,47.0,44.0,9.059607
Martuni,616438,AM,2018-04-03 23:19:26,45.31,40.14,29.48,29.48,73.0,0.0,12.817666200000001
Colfax,5790554,US,2018-04-03 22:53:00,-117.36,46.88,43.52,44.6,86.0,40.0,38.5201068
Arbelaez,3689709,CO,2018-04-03 22:00:00,-74.42,4.27,57.2,57.2,87.0,40.0,18.007367000000002
Anthisnes,2803148,BE,2018-04-03 22:55:00,5.52,50.48,49.77,53.6,81.0,40.0,38.5201068
Dofteana,679167,RO,2018-04-03 23:00:00,26.53,46.32,39.2,39.2,86.0,0.0,5.010745600000001
Narayanavanam,1261832,IN,2018-04-03 23:19:19,79.59,13.42,73.04,73.04,94.0,24.0,7.5608572
Port Kembla,2152671,AU,2018-04-03 23:00:00,150.9,-34.48,67.5,71.6,64.0,75.0,25.523485400000002
Trikala,252664,GR,2018-04-03 23:19:19,21.77,39.56,33.89,33.89,81.0,0.0,4.809421
Dulovo,716671,SK,2018-04-03 23:19:28,20.19,48.37,31.41,31.41,84.0,48.0,4.2949248
Milotice,3070640,CZ,2018-04-03 23:00:00,17.14,48.95,46.62,50.0,81.0,0.0,13.018990800000001
Port Said,360923,EG,2018-04-03 23:19:20,30.55,25.34,65.7,65.7,33.0,12.0,19.8192884
Kaseda,1859964,JP,2018-04-03 22:00:00,130.32,31.42,55.4,55.4,93.0,20.0,7.5161184
Petarukan,1631271,ID,2018-04-03 23:19:21,109.45,-6.9,73.35,73.35,90.0,8.0,7.046361
Canicattini Bagni,2525404,IT,2018-04-03 22:50:00,15.06,37.03,48.69,50.0,87.0,0.0,13.018990800000001
Flora Vista,5467905,US,2018-04-03 22:53:00,-108.08,36.79,68.68,71.6,8.0,1.0,43.53085240000001
Nangong,1800065,CN,2018-04-03 23:19:21,115.37,37.36,65.7,65.7,74.0,88.0,35.567346
Niemodlin,3090951,PL,2018-04-03 23:19:22,17.62,50.64,35.37,35.37,79.0,0.0,14.5624794
Alconchel,2522112,ES,2018-04-03 23:19:30,-7.07,38.52,50.09,50.09,97.0,12.0,17.0678522
Chelyabinsk,1508291,RU,2018-04-03 22:30:00,61.4,55.16,28.4,28.4,86.0,40.0,9.9991218
Ullubiyaul,479241,RU,2018-04-03 22:30:00,47.72,42.59,44.6,44.6,93.0,90.0,25.008989200000002
Calabanga,1720794,PH,2018-04-03 23:19:31,123.22,13.71,78.48,78.48,91.0,48.0,15.5691024
Basiano,6534467,IT,2018-04-03 22:55:00,9.47,45.57,50.88,53.6,58.0,75.0,2.5053728000000004
Plettenberg Bay,964712,ZA,2018-04-03 23:19:32,23.37,-34.05,66.33,66.33,93.0,80.0,11.050483600000002
Oelsnitz,2857918,DE,2018-04-03 23:00:00,12.7,50.72,41.0,41.0,74.0,0.0,13.018990800000001
Zavetnoye,464179,RU,2018-04-03 23:19:24,43.89,47.12,44.69,44.69,83.0,88.0,31.31716
Luhyny,702679,UA,2018-04-03 23:19:33,28.4,51.08,36.5,36.5,94.0,64.0,32.323783
Mercer Island,5803139,US,2018-04-03 22:58:00,-122.23,47.58,50.52,53.6,43.0,75.0,15.5019942
Gingelom,2797524,BE,2018-04-03 22:55:00,5.13,50.75,51.01,53.6,81.0,40.0,38.5201068
Dogansehir,316440,TR,2018-04-03 22:50:00,37.88,38.09,46.4,46.4,61.0,0.0,23.0181126
Luna,1705097,PH,2018-04-03 23:19:34,120.38,16.85,68.67,68.67,91.0,88.0,5.7936746
Helena Valley Northeast,7261421,US,2018-04-03 22:53:00,-111.95,46.7,19.4,19.4,62.0,75.0,33.5317306
Maierus,674059,RO,2018-04-03 23:19:26,25.53,45.9,31.86,31.86,86.0,8.0,8.813543600000001
Skillingaryd,2677644,SE,2018-04-03 22:50:00,14.09,57.43,22.17,23.0,67.0,20.0,10.513618000000001
Lisnaskea,2644400,GB,2018-04-03 23:19:27,-7.44,54.25,44.73,44.73,96.0,100.0,17.3139156
Toshbuloq,1512658,UZ,2018-04-03 22:30:00,71.59,40.93,57.2,57.2,71.0,90.0,5.010745600000001
Xinqing,2033667,CN,2018-04-03 23:19:36,129.53,48.28,29.52,29.52,31.0,0.0,20.5574786
Ashtabula,5146089,US,2018-04-03 22:55:00,-80.79,41.87,37.72,42.8,55.0,1.0,15.5019942
Deoria,1273193,IN,2018-04-03 23:16:39,83.79,26.5,71.06,71.06,71.0,0.0,19.8192884
Kokubu,1858972,JP,2018-04-03 22:00:00,130.77,31.73,57.6,59.0,93.0,20.0,7.5161184
Felipe Carrillo Puerto,3527639,MX,2018-04-03 23:19:28,-88.05,19.58,78.89,78.89,66.0,68.0,15.5691024
Lepoglava,3196657,HR,2018-04-03 23:00:00,16.04,46.21,51.8,51.8,43.0,8.0,33.5317306
Kelmscott,2068594,AU,2018-04-03 23:00:00,116.01,-32.13,71.65,73.4,77.0,8.0,15.5019942
Nova Gorica,3194452,IT,2018-04-03 23:00:00,13.65,45.96,50.59,51.8,87.0,32.0,13.018990800000001
Fort Atkinson,5253498,US,2018-04-03 22:55:00,-88.84,42.93,38.28,41.0,35.0,1.0,13.018990800000001
Ejby,2622664,DK,2018-04-03 22:50:00,11.85,55.69,35.6,35.6,99.0,88.0,13.018990800000001
San Isidro,1689639,PH,2018-04-03 23:19:33,121.63,16.74,71.96,71.96,100.0,88.0,8.299047400000001
Westfield,4928118,US,2018-04-03 22:43:00,-86.13,40.04,44.35,46.4,70.0,1.0,28.520985000000003
Brody,711416,UA,2018-04-03 23:19:34,25.14,50.08,31.28,31.28,91.0,0.0,15.8151658
Soyibug,1430991,IN,2018-04-03 23:19:43,74.71,34.08,38.43,38.43,94.0,92.0,4.2949248
Nahavand,122915,IR,2018-04-03 23:19:34,48.37,34.19,31.05,31.05,75.0,0.0,5.7936746
Aubel,2802985,BE,2018-04-03 22:55:00,5.86,50.7,52.11,53.6,76.0,90.0,43.53085240000001
Rosshaupten,2844701,DE,2018-04-03 22:50:00,10.47,48.43,48.58,50.0,61.0,88.0,10.513618000000001
Dalfsen,2757850,NL,2018-04-03 22:55:00,6.25,52.51,50.0,50.0,81.0,75.0,23.0181126
Myrtletown,5568514,US,2018-04-03 22:53:00,-124.13,40.79,54.9,57.2,47.0,1.0,38.5201068
Soimi,666528,RO,2018-04-03 23:00:00,22.12,46.68,39.2,39.2,88.0,0.0,15.5019942
Lake Panasoffkee,4161327,US,2018-04-03 22:35:00,-82.09,28.76,77.67,82.4,78.0,1.0,15.5019942
Whalley,2634192,GB,2018-04-03 22:50:00,-2.41,53.82,46.42,48.2,100.0,40.0,13.018990800000001
Abbeville,3038789,FR,2018-04-03 23:00:00,1.83,50.11,50.0,50.0,93.0,0.0,13.018990800000001
Battlefield,4375979,US,2018-04-03 22:52:00,-93.36,37.12,44.08,44.6,100.0,90.0,33.5317306
Albany,5106834,US,2018-04-03 22:54:00,-73.75,42.65,42.44,46.4,28.0,75.0,20.512739800000002
Hertford,2647044,GB,2018-04-03 22:50:00,-0.08,51.8,49.71,51.8,100.0,90.0,18.007367000000002
Saultain,2975802,FR,2018-04-03 23:00:00,3.58,50.34,50.0,50.0,93.0,0.0,33.5317306
Fokino,571476,RU,2018-04-03 23:19:46,34.42,53.45,31.73,31.73,95.0,88.0,25.322160800000002
Bangkal,1715348,PH,2018-04-03 23:00:00,125.56,7.07,77.0,77.0,88.0,20.0,7.5161184
Meeker,5579761,US,2018-04-03 22:53:00,-107.91,40.04,62.67,68.0,18.0,90.0,64.5580884
Paea,4034005,PF,2018-04-03 23:00:00,-149.58,-17.68,86.0,86.0,62.0,75.0,5.010745600000001
Parkside,4560233,US,2018-04-03 22:55:00,-75.38,39.86,42.15,44.6,80.0,90.0,13.018990800000001
Kazachinskoye,1504075,RU,2018-04-03 23:19:39,93.28,57.69,21.33,21.33,86.0,76.0,13.309793
Liuli,878242,TZ,2018-04-03 23:19:39,34.65,-11.1,70.92,70.92,100.0,76.0,14.808542800000001
Montrejeau,2992102,FR,2018-04-03 23:00:00,0.56,43.09,48.2,48.2,93.0,0.0,5.010745600000001
Orzesze,3089965,PL,2018-04-03 23:00:00,18.77,50.14,30.2,30.2,80.0,0.0,7.5161184
Nierstein,2862485,DE,2018-04-03 22:57:00,8.34,49.87,49.14,50.0,76.0,75.0,7.5161184
Singur,1256124,IN,2018-04-03 23:00:00,88.23,22.81,69.8,69.8,94.0,0.0,6.3081708
Skibbereen,2961459,IE,2018-04-03 22:30:00,-9.27,51.55,46.4,46.4,100.0,75.0,20.512739800000002
Retiro,3873372,CL,2018-04-03 22:00:00,-71.77,-36.06,78.8,78.8,44.0,44.0,5.010745600000001
Kheri,1276389,IN,2018-04-03 23:19:51,77.8,21.85,67.28,67.28,41.0,0.0,13.0637296
Warabi,1848903,JP,2018-04-03 22:56:00,139.67,35.83,58.05,59.0,72.0,40.0,10.513618000000001
Santo Tomas,1725864,PH,2018-04-03 23:19:43,120.59,15.88,75.83,75.83,86.0,64.0,3.802798
Jaicos,3397660,BR,2018-04-03 23:19:44,-41.14,-7.36,74.21,74.21,92.0,20.0,7.046361
Trinitapoli,3165166,IT,2018-04-03 22:50:00,16.09,41.36,50.0,50.0,87.0,0.0,15.5019942
Okawa,1855425,JP,2018-04-03 22:00:00,133.42,33.8,59.0,59.0,77.0,20.0,18.007367000000002
Kumbo,2229748,CM,2018-04-03 23:19:44,10.69,6.21,58.32,58.32,92.0,0.0,2.7961750000000003
West Richland,5815599,US,2018-04-03 22:53:00,-119.35,46.3,53.6,53.6,23.0,75.0,23.0181126
Syumsi,485064,RU,2018-04-03 23:19:53,51.61,57.11,31.05,31.05,89.0,64.0,16.8217888
Rifle,5436363,US,2018-04-03 22:53:00,-107.78,39.53,54.48,68.0,13.0,1.0,74.5572102
Klishkivtsi,705626,UA,2018-04-03 23:19:46,26.26,48.43,34.38,34.38,81.0,0.0,15.054606200000002
Rostusha,786238,MK,2018-04-03 23:19:46,20.6,41.61,31.05,31.05,87.0,0.0,4.809421
Plainsboro Center,5102729,US,2018-04-03 23:15:00,-74.59,40.33,40.73,42.8,65.0,1.0,11.050483600000002
Petranka,697473,UA,2018-04-03 23:19:46,24.3,48.9,30.78,30.78,88.0,20.0,7.046361
Cungrea,679959,RO,2018-04-03 23:00:00,24.38,44.67,42.8,42.8,60.0,0.0,13.018990800000001
Orlik,1496073,RU,2018-04-03 23:19:55,99.83,52.51,-13.59,-13.59,50.0,0.0,4.2949248
Celldomolk,3054533,HU,2018-04-03 22:45:00,17.15,47.26,47.84,51.8,53.0,0.0,31.0263578
Murat,2991179,FR,2018-04-03 23:00:00,2.87,45.11,46.4,46.4,61.0,0.0,31.0263578
Xitangtuo,1788291,CN,2018-04-03 22:30:00,117.48,39.31,55.4,55.4,17.0,0.0,30.019734800000002
Ceton,3027758,FR,2018-04-03 23:00:00,0.75,48.23,50.9,51.8,93.0,0.0,20.512739800000002
Edmond,4535740,US,2018-04-03 22:56:00,-97.47,35.66,53.38,55.4,71.0,90.0,43.53085240000001
Baculin,1729469,PH,2018-04-03 23:19:57,126.58,7.45,79.2,79.2,99.0,20.0,14.808542800000001
North Cape May,4503299,US,2018-04-03 22:56:00,-74.96,38.98,42.46,44.6,86.0,90.0,13.018990800000001
Viggiu,3164373,IT,2018-04-03 22:50:00,8.91,45.87,51.1,53.6,81.0,90.0,5.010745600000001
Presidente Dutra,3461013,BR,2018-04-03 23:19:58,-41.99,-11.3,75.38,75.38,69.0,88.0,7.5608572
Hiliseu-Horia,676194,RO,2018-04-03 23:00:00,26.25,48.03,35.6,35.6,74.0,0.0,15.5019942
Portopalo,2523703,IT,2018-04-03 23:19:59,15.13,36.68,56.48,56.48,100.0,0.0,14.070352600000001
Summerlin South,7262622,US,2018-04-03 22:56:00,-115.33,36.14,83.14,84.2,12.0,75.0,20.512739800000002
Lopatinskiy,534174,RU,2018-04-03 22:30:00,38.73,55.34,33.8,33.8,96.0,90.0,30.019734800000002
Lakeside,5364782,US,2018-04-03 22:56:00,-116.92,32.86,61.63,62.6,72.0,90.0,23.0181126
Buyabod,1722162,PH,2018-04-03 23:19:52,122.05,13.47,75.56,75.56,100.0,88.0,8.052984
Capula,3991110,MX,2018-04-03 22:52:00,-101.39,19.67,80.6,80.6,30.0,75.0,28.520985000000003
La Ciotat,3010025,FR,2018-04-03 23:00:00,5.6,43.17,54.3,55.4,47.0,0.0,20.512739800000002
Pokrovsk,704422,UA,2018-04-03 23:19:52,37.18,48.28,41.81,41.81,89.0,88.0,29.572346800000002
Le Boupere,3005099,FR,2018-04-03 23:00:00,-0.93,46.8,51.8,51.8,81.0,44.0,23.0181126
Makalle,3430943,AR,2018-04-03 22:00:00,-59.29,-27.21,75.02,77.0,73.0,0.0,7.5161184
Bellheim,2951206,DE,2018-04-03 22:56:00,8.28,49.2,53.58,55.4,50.0,1.0,23.0181126
Svatove,692118,UA,2018-04-03 23:19:53,38.16,49.42,39.6,39.6,100.0,88.0,30.0644736
Kerepes,7284912,HU,2018-04-03 23:00:00,19.29,47.56,39.2,39.2,80.0,0.0,15.5019942
Schubelbach,2658696,CH,2018-04-03 22:50:00,8.93,47.17,46.72,48.2,66.0,0.0,5.010745600000001
Jastrzebie Zdroj,3097391,PL,2018-04-03 23:00:00,18.57,49.96,33.6,37.4,69.0,0.0,2.5053728000000004
Obudu,2328151,NG,2018-04-03 23:19:54,9.17,6.67,73.8,73.8,94.0,0.0,19.3047922
Kettig,2891297,DE,2018-04-03 22:50:00,7.46,50.4,48.78,50.0,57.0,20.0,28.520985000000003
Laurel,5661766,US,2018-04-03 22:53:00,-108.77,45.67,17.6,17.6,85.0,90.0,54.0444704
Laguna Salada,3502373,DO,2018-04-03 22:00:00,-71.1,19.65,78.78,80.6,78.0,20.0,13.018990800000001
Dalias,2518921,ES,2018-04-03 23:00:00,-2.87,36.82,57.2,57.2,87.0,0.0,10.513618000000001
Bolo,328316,ET,2018-04-03 23:19:56,39.58,8.24,53.96,53.96,93.0,44.0,8.052984
Shijiazhuang,1795270,CN,2018-04-03 22:00:00,114.46,38.04,55.4,55.4,30.0,0.0,30.019734800000002
Skattkarr,2677869,SE,2018-04-03 22:50:00,13.63,59.42,24.8,24.8,58.0,0.0,10.513618000000001
Clinton,4852022,US,2018-04-03 22:35:00,-90.19,41.84,42.22,42.8,35.0,75.0,20.512739800000002
Shirley,8224782,GB,2018-04-03 22:50:00,-1.83,52.41,48.2,48.2,93.0,40.0,23.0181126
Acipayam,325426,TR,2018-04-03 22:50:00,29.35,37.42,42.8,42.8,87.0,0.0,5.010745600000001
Dedougou,2361477,BF,2018-04-03 23:19:57,-3.47,12.47,81.86,81.86,43.0,92.0,7.3147938
East Pensacola Heights,4154047,US,2018-04-03 22:59:00,-87.18,30.43,74.39,75.2,73.0,20.0,25.523485400000002
South Amherst,5172425,US,2018-04-03 22:56:00,-82.25,41.36,38.61,42.8,51.0,1.0,33.5317306
Waterlooville,2634686,GB,2018-04-03 22:50:00,-1.03,50.88,49.24,50.0,93.0,75.0,13.018990800000001
Itaguacu,3460901,BR,2018-04-03 23:18:12,-40.86,-19.8,71.55,71.55,79.0,20.0,9.7977972
Vygonichi,470473,RU,2018-04-03 23:20:07,34.07,53.1,31.73,31.73,95.0,88.0,25.322160800000002
Zhengzhou,1784658,CN,2018-04-03 22:00:00,113.65,34.76,59.0,59.0,93.0,0.0,5.010745600000001
Sable-sur-Sarthe,2982076,FR,2018-04-03 23:00:00,-0.33,47.84,52.68,53.6,76.0,0.0,20.512739800000002
Khurrianwala,1173692,PK,2018-04-03 23:19:59,73.27,31.5,67.5,67.5,85.0,92.0,26.8209106
Didim,297090,TR,2018-04-03 22:50:00,27.27,37.37,54.7,57.2,71.0,0.0,7.5161184
Kerewan,2412992,GM,2018-04-03 23:00:00,-16.09,13.49,68.0,68.0,77.0,5.0,18.8126654
Pueblo Nuevo Tiquisate,3591093,GT,2018-04-03 22:00:00,-91.36,14.28,90.61,91.4,46.0,20.0,20.512739800000002
Miglionico,3173444,IT,2018-04-03 22:55:00,16.5,40.57,49.41,50.0,93.0,0.0,13.018990800000001
San Vicente de Canete,3928993,PE,2018-04-03 23:20:01,-76.38,-13.08,64.8,64.8,87.0,24.0,6.3081708
Mashava,886864,ZW,2018-04-03 23:20:01,30.49,-20.05,59.13,59.13,95.0,0.0,15.054606200000002
Bellaire,4673353,US,2018-04-03 22:55:00,-95.46,29.71,78.08,80.6,78.0,75.0,28.520985000000003
Brightwaters,2152071,AU,2018-04-03 23:00:00,151.55,-33.11,77.0,77.0,65.0,20.0,38.5201068
Hooverson Heights,5280378,US,2018-04-03 22:56:00,-80.58,40.32,39.56,41.0,69.0,90.0,13.018990800000001
Schifflange,2960102,LU,2018-04-03 23:00:00,6.01,49.51,50.13,51.8,76.0,75.0,15.5019942
Santa Catalina Sur,1688343,PH,2018-04-03 23:18:08,121.43,13.87,76.68,76.68,100.0,24.0,11.318916399999999
Mlawa,764634,PL,2018-04-03 23:20:02,20.38,53.11,28.13,28.13,95.0,0.0,12.057106600000001
Santa Catarina Mechoacan,3517665,MX,2018-04-03 23:20:03,-97.83,16.33,81.36,81.36,66.0,56.0,9.3056704
El Dorado,3644689,VE,2018-04-03 23:20:11,-61.64,6.71,84.38,84.38,37.0,0.0,10.5583568
Velykoploske,690035,UA,2018-04-03 23:00:00,29.68,47.02,39.2,39.2,69.0,0.0,13.018990800000001
Hamilton,3573197,BM,2018-04-03 21:55:00,-64.78,32.3,69.8,69.8,73.0,75.0,10.513618000000001
Polyarnyye Zori,506762,RU,2018-04-03 23:16:23,32.5,67.37,27.36,27.36,82.0,92.0,19.8192884
Saro,3109378,ES,2018-04-03 23:00:00,-3.84,43.26,64.4,64.4,48.0,20.0,18.007367000000002
Borovskiy,1508879,RU,2018-04-03 22:30:00,65.72,57.04,23.0,23.0,73.0,0.0,20.020613
Priestewitz,2852054,DE,2018-04-03 22:50:00,13.51,51.25,44.13,46.4,73.0,0.0,23.0181126
Soumagne,2786345,BE,2018-04-03 22:55:00,5.74,50.61,52.12,53.6,81.0,40.0,38.5201068
Hamirpur,1270455,IN,2018-04-03 23:20:05,80.15,25.95,68.99,68.99,63.0,0.0,9.7977972
Asingan,1730070,PH,2018-04-03 23:20:13,120.67,16.0,70.83,70.83,97.0,80.0,6.554234200000001
Tarime,149581,TZ,2018-04-03 23:20:14,34.38,-1.35,60.35,60.35,100.0,32.0,8.813543600000001
Alistrati,736921,GR,2018-04-03 22:50:00,23.96,41.07,48.2,48.2,76.0,0.0,13.018990800000001
Finana,2517722,ES,2018-04-03 23:00:00,-2.84,37.17,57.2,57.2,87.0,0.0,10.513618000000001
Guadalupe,4005492,MX,2018-04-03 21:40:00,-100.26,25.68,88.47,89.6,38.0,5.0,25.523485400000002
Karasuk,1504489,RU,2018-04-03 23:20:15,78.03,53.73,23.99,23.99,90.0,88.0,23.3089148
Sandyford,3315278,IE,2018-04-03 22:30:00,-6.22,53.27,42.8,42.8,100.0,75.0,13.018990800000001
Sankt Margrethen,2658816,CH,2018-04-03 22:50:00,9.64,47.45,54.23,60.8,90.0,90.0,43.53085240000001
Les Rosiers-sur-Loire,2999725,FR,2018-04-03 23:00:00,-0.22,47.35,53.6,53.6,76.0,0.0,20.512739800000002
Navaconcejo,3115700,ES,2018-04-03 23:20:07,-5.83,40.18,48.6,48.6,100.0,92.0,14.316416000000002
Bilaran,1697018,PH,2018-04-03 23:20:07,124.48,11.0,79.56,79.56,100.0,64.0,10.804420200000001
Kawasaki,1859642,JP,2018-04-03 22:56:00,139.71,35.52,58.05,59.0,72.0,40.0,10.513618000000001
Narromine,2155710,AU,2018-04-03 23:00:00,148.24,-32.23,75.2,75.2,53.0,0.0,43.53085240000001
Pougues-les-Eaux,6438051,FR,2018-04-03 23:00:00,3.1,47.08,53.6,53.6,62.0,0.0,20.512739800000002
Kumhausen,2882563,DE,2018-04-03 22:50:00,12.16,48.51,49.64,51.8,65.0,0.0,15.5019942
Heidenau,2907887,DE,2018-04-03 22:50:00,13.87,50.98,46.4,46.4,73.0,0.0,23.0181126
Correzzola,3178015,IT,2018-04-03 22:55:00,12.07,45.24,51.8,53.6,81.0,40.0,15.5019942
Como,6542055,IT,2018-04-03 22:50:00,9.09,45.81,51.08,53.6,81.0,90.0,5.010745600000001
Mazan,2994901,FR,2018-04-03 23:00:00,5.13,44.06,52.72,55.4,53.0,0.0,7.5161184
Wuzhou,1790840,CN,2018-04-03 23:20:18,111.3,23.48,71.06,71.06,91.0,12.0,8.5674802
Tatarsk,1490003,RU,2018-04-03 23:20:10,75.96,55.22,24.21,24.21,89.0,68.0,26.060351000000004
Puerto Armuelles,3702431,PA,2018-04-03 22:00:00,-82.86,8.27,86.0,86.0,62.0,20.0,23.0181126
Alamo,5322794,US,2018-04-03 22:58:00,-122.03,37.85,68.5,75.2,46.0,1.0,31.0263578
Hillscheid,2904667,DE,2018-04-03 22:57:00,7.7,50.41,48.65,50.0,76.0,75.0,7.5161184
Chinju,1846052,KR,2018-04-03 23:20:19,128.08,35.19,62.15,62.15,71.0,0.0,5.5476112
Las Rosas,3847836,AR,2018-04-03 23:20:20,-61.58,-32.48,64.4,64.4,92.0,64.0,6.554234200000001
Lengshuijiang,1804169,CN,2018-04-03 23:20:12,111.45,27.66,66.33,66.33,98.0,56.0,8.299047400000001
Mechetinskaya,528137,RU,2018-04-03 23:20:12,40.45,46.77,49.01,49.01,100.0,92.0,31.831656200000005
Voorburg,2745321,NL,2018-04-03 22:55:00,4.36,52.07,49.66,51.8,87.0,90.0,28.520985000000003
Peru,4905770,US,2018-04-03 22:40:00,-89.13,41.33,43.48,44.6,48.0,90.0,31.0263578
Caleufu,3863377,AR,2018-04-03 23:20:21,-64.56,-35.6,65.25,65.25,60.0,0.0,21.564101600000004
Pandan,1695555,PH,2018-04-03 23:20:13,122.09,11.72,78.71,78.71,100.0,76.0,22.3246612
Wauwatosa,5278159,US,2018-04-03 22:55:00,-88.01,43.05,36.61,39.2,55.0,90.0,20.512739800000002
Berwick,5180119,US,2018-04-03 22:54:00,-76.25,41.06,41.59,42.8,60.0,40.0,5.0554844
Agua Prieta,4019260,MX,2018-04-03 22:56:00,-109.55,31.32,80.6,80.6,9.0,1.0,61.53821940000001
Usingen,2818097,DE,2018-04-03 22:57:00,8.54,50.33,49.12,50.0,76.0,75.0,7.5161184
Cerans-Foulletourte,3027918,FR,2018-04-03 23:00:00,0.08,47.83,51.76,53.6,81.0,0.0,7.5161184
Ilek,557340,RU,2018-04-03 23:20:14,53.38,51.53,27.68,27.68,84.0,8.0,24.3155378
Napkor,717042,HU,2018-04-03 22:45:00,21.87,47.94,37.4,37.4,86.0,0.0,10.513618000000001
Cucuron,3022164,FR,2018-04-03 23:00:00,5.44,43.77,53.22,55.4,62.0,0.0,28.520985000000003
Bagneux,3035409,FR,2018-04-03 23:00:00,2.3,48.8,53.35,55.4,71.0,0.0,15.5019942
Burley,5587385,US,2018-04-03 21:53:00,-113.79,42.54,39.34,41.0,27.0,40.0,64.5580884
Byahoml,630343,BY,2018-04-03 23:20:24,28.06,54.73,32.0,32.0,86.0,56.0,42.0768414
Coevorden,2757937,NL,2018-04-03 22:55:00,6.74,52.66,48.2,48.2,93.0,90.0,23.0181126
Santa Ines,3654870,EC,2018-04-03 22:00:00,-78.63,-0.82,55.4,55.4,82.0,90.0,7.5161184
Padre Garcia,1696742,PH,2018-04-03 23:20:16,121.21,13.88,76.68,76.68,100.0,24.0,11.318916399999999
Suso,1730579,PH,2018-04-03 23:00:00,123.9,10.91,80.6,80.6,78.0,40.0,10.513618000000001
Canterbury,2653877,GB,2018-04-03 22:50:00,1.08,51.28,49.1,50.0,93.0,92.0,36.0371034
Cave Spring,4751421,US,2018-04-03 22:55:00,-80.01,37.23,55.51,62.6,87.0,90.0,13.018990800000001
Le Teil,2999259,FR,2018-04-03 23:00:00,4.68,44.55,50.0,50.0,53.0,0.0,7.5161184
Amneville,3037838,FR,2018-04-03 23:00:00,6.14,49.26,52.29,55.4,62.0,92.0,38.5201068
Sutto,3045045,HU,2018-04-03 22:45:00,18.45,47.76,44.6,44.6,70.0,0.0,23.0181126
Egenhausen,2933216,DE,2018-04-03 22:50:00,8.62,48.57,50.9,51.8,53.0,0.0,5.010745600000001
Neftenbach / Dorf Neftenbach,2659504,CH,2018-04-03 22:50:00,8.66,47.53,47.41,48.2,66.0,0.0,5.010745600000001
Camaley,1719939,PH,2018-04-03 23:20:27,120.3,16.0,70.83,70.83,97.0,80.0,6.554234200000001
Ebersheim,2809346,DE,2018-04-03 22:57:00,8.25,49.91,49.15,50.0,76.0,75.0,7.5161184
Kolpashevo,1502862,RU,2018-04-03 23:20:19,82.9,58.31,18.18,18.18,86.0,76.0,14.808542800000001
Sussex,6159980,CA,2018-04-03 23:00:00,-65.51,45.72,32.0,32.0,57.0,20.0,15.5019942
Niedercorn,2960228,LU,2018-04-03 23:00:00,5.89,49.54,50.13,51.8,76.0,75.0,15.5019942
Narok,184379,KE,2018-04-03 23:20:28,35.87,-1.09,55.04,55.04,95.0,12.0,10.066230000000001
Tholen,2746351,NL,2018-04-03 22:55:00,4.22,51.54,49.98,51.8,87.0,90.0,25.523485400000002
Nanlong,1799908,CN,2018-04-03 23:20:29,106.05,31.35,60.08,60.08,84.0,0.0,6.0621074
Wewoka,4555211,US,2018-04-03 22:55:00,-96.49,35.16,53.56,55.4,76.0,90.0,13.018990800000001
Chashnikovo,569841,RU,2018-04-03 22:30:00,37.17,56.03,33.8,33.8,100.0,90.0,20.020613
San Bernardo,3872348,CL,2018-04-03 23:00:00,-70.7,-33.59,67.78,69.8,59.0,0.0,28.520985000000003
Best,2759040,NL,2018-04-03 22:55:00,5.39,51.5,51.8,51.8,81.0,90.0,31.0263578
Koran,3206012,BA,2018-04-03 23:00:00,18.57,43.81,37.4,37.4,86.0,0.0,2.5053728000000004
Breasta,683764,RO,2018-04-03 23:00:00,23.69,44.34,42.8,42.8,60.0,0.0,13.018990800000001
Fochville,1004109,ZA,2018-04-03 23:00:00,27.49,-26.49,59.0,59.0,93.0,24.0,6.0621074
Yuncos,6361864,ES,2018-04-03 23:00:00,-3.87,40.09,54.5,55.4,82.0,75.0,18.007367000000002
Sinacaban,1686335,PH,2018-04-03 23:20:24,123.84,8.29,76.46,76.46,96.0,56.0,7.5608572
Campbellsport,5247758,US,2018-04-03 22:55:00,-88.28,43.6,36.5,39.2,47.0,1.0,15.5019942
Saquisili,3651251,EC,2018-04-03 22:00:00,-78.67,-0.83,55.4,55.4,82.0,90.0,7.5161184
Poggio Bustone,3170482,IT,2018-04-03 23:20:25,12.89,42.5,34.25,34.25,86.0,48.0,4.809421
Tralee,4816186,US,2018-04-03 22:55:00,-81.4,37.56,49.12,51.8,81.0,90.0,5.301547800000001
Timbauba,3664243,BR,2018-04-03 22:00:00,-70.33,-8.3,86.0,86.0,74.0,40.0,18.007367000000002
Hauppauge,5120228,US,2018-04-03 22:56:00,-73.2,40.83,39.02,41.0,64.0,75.0,10.513618000000001
Bad Wilsnack,2953316,DE,2018-04-03 23:20:34,11.94,52.96,40.28,40.28,88.0,88.0,26.060351000000004
Crevillente,2519110,ES,2018-04-03 23:00:00,-0.81,38.25,53.6,53.6,87.0,0.0,13.018990800000001
Abrera,3131024,ES,2018-04-03 23:00:00,1.9,41.52,55.45,57.2,81.0,80.0,5.010745600000001
Kopong,933596,BW,2018-04-03 22:00:00,25.89,-24.47,68.0,68.0,82.0,0.0,18.007367000000002
Asha,580660,RU,2018-04-03 23:20:27,57.29,54.99,19.98,19.98,79.0,32.0,5.7936746
San Pedro Xalpa,3827566,MX,2018-04-03 23:05:00,-99.19,19.82,72.59,77.0,34.0,75.0,18.007367000000002
Alcala de los Gazules,2522162,ES,2018-04-03 23:00:00,-5.72,36.46,60.28,60.8,93.0,100.0,20.512739800000002
Pleystein,2853202,DE,2018-04-03 23:00:00,12.41,49.65,42.84,46.4,75.0,90.0,6.3081708
Heathcote,2163696,AU,2018-04-03 23:20:28,144.7,-36.92,61.2,61.2,66.0,0.0,19.3047922
Esterwegen,2928717,DE,2018-04-03 22:20:00,7.63,52.99,47.23,48.2,87.0,92.0,15.5019942
Altenkunstadt,2957555,DE,2018-04-03 22:56:00,11.24,50.13,42.8,42.8,75.0,90.0,12.817666200000001
Yesilhisar,296860,TR,2018-04-03 22:50:00,35.09,38.35,33.8,33.8,81.0,40.0,10.513618000000001
Sotira,146617,CY,2018-04-03 23:00:00,33.95,35.03,56.25,57.2,76.0,0.0,7.5161184
Seymour,4727948,US,2018-04-03 23:20:29,-99.26,33.59,71.24,71.24,65.0,32.0,42.0768414
Scott Air Force Base,7259489,US,2018-04-03 23:15:00,-89.85,38.54,38.41,41.0,93.0,90.0,18.007367000000002
Celle,2940213,DE,2018-04-03 22:50:00,10.08,52.62,47.73,50.0,71.0,75.0,15.5019942
Marawi,1701054,PH,2018-04-03 23:20:38,124.29,8.0,74.25,74.25,84.0,12.0,6.554234200000001
Bac Kan,1591538,VN,2018-04-03 23:20:30,105.83,22.13,67.91,67.91,91.0,88.0,5.301547800000001
Franklin,4623560,US,2018-04-03 22:56:00,-86.87,35.93,61.45,69.8,71.0,75.0,23.0181126
West Jefferson,4062774,US,2018-04-03 22:55:00,-87.07,33.65,77.45,80.6,47.0,40.0,23.0181126
Zuerich (Kreis 12) / Saatlen,6295490,CH,2018-04-03 22:50:00,8.56,47.41,46.71,48.2,66.0,0.0,5.010745600000001
Suzuka,1851348,JP,2018-04-03 22:30:00,136.59,34.89,59.0,59.0,93.0,0.0,2.5053728000000004
Sukkur,1164408,PK,2018-04-03 22:30:00,68.86,27.7,78.8,78.8,65.0,40.0,15.5019942
Tungao,1680687,PH,2018-04-03 23:20:41,125.57,8.78,77.45,77.45,100.0,48.0,3.802798
Kolt,2618489,DK,2018-04-03 22:50:00,10.08,56.11,36.45,37.4,94.0,92.0,10.513618000000001
Daurala,1273371,IN,2018-04-03 23:20:33,77.7,29.11,65.03,65.03,86.0,8.0,6.0621074
Edmonds,5793427,US,2018-04-03 22:56:00,-122.38,47.81,51.58,53.6,61.0,90.0,18.007367000000002
Stella,2641673,GB,2018-04-03 22:50:00,-1.73,54.97,36.37,39.2,100.0,90.0,13.018990800000001
Minturno,6541892,IT,2018-04-03 22:55:00,13.75,41.26,48.2,48.2,87.0,0.0,5.301547800000001
Kani Keli,1090476,YT,2018-04-03 22:30:00,45.1,-12.95,78.8,78.8,88.0,0.0,5.010745600000001
Gudja,2563020,MT,2018-04-03 22:45:00,14.5,35.85,53.6,53.6,76.0,0.0,10.513618000000001
Blachownia,3103274,PL,2018-04-03 23:00:00,18.97,50.78,30.2,30.2,80.0,0.0,7.5161184
Putina,3931275,PE,2018-04-03 22:00:00,-69.87,-14.91,59.0,59.0,38.0,40.0,25.523485400000002
Nalbant,672532,RO,2018-04-03 23:00:00,28.62,45.05,39.2,39.2,86.0,0.0,20.512739800000002
Putignano,3169742,IT,2018-04-03 22:55:00,17.12,40.85,49.42,50.0,100.0,0.0,23.0181126
Lincoln Park,5100477,US,2018-04-03 23:15:00,-74.3,40.92,40.87,42.8,65.0,1.0,8.813543600000001
Bacag,1729696,PH,2018-04-03 23:20:36,120.58,15.93,70.83,70.83,97.0,80.0,6.554234200000001
Lexington,4297983,US,2018-04-03 22:35:00,-84.5,38.05,47.64,48.2,87.0,90.0,10.513618000000001
Xixiang,6942880,CN,2018-04-03 23:00:00,113.87,22.58,71.6,71.6,73.0,20.0,5.010745600000001
Razdolnoye,874045,RU,2018-04-03 23:20:37,44.53,43.7,42.53,42.53,98.0,88.0,10.5583568
East Falmouth,4832176,US,2018-04-03 22:53:00,-70.56,41.58,37.56,39.2,100.0,90.0,10.513618000000001
Fairhaven,4936087,US,2018-04-03 22:56:00,-70.9,41.64,37.9,39.2,69.0,90.0,15.5019942
Cristesti,680180,RO,2018-04-03 23:00:00,24.48,46.5,32.61,33.8,89.0,32.0,13.018990800000001
Liozon,1706093,PH,2018-04-03 23:20:38,119.93,15.4,74.93,74.93,100.0,68.0,8.299047400000001
Hamburg,2911298,DE,2018-04-03 22:50:00,10.0,53.55,44.6,44.6,75.0,0.0,23.0181126
Blaichach,2948114,DE,2018-04-03 22:50:00,10.26,47.54,49.55,60.8,80.0,90.0,43.53085240000001
Danilovka,567177,RU,2018-04-03 23:20:47,44.12,50.35,35.06,35.06,88.0,76.0,31.31716
Los Alamitos,5368304,US,2018-04-03 22:58:00,-118.08,33.8,65.5,69.8,59.0,1.0,28.520985000000003
Sarbogard,3045564,HU,2018-04-03 23:20:48,18.62,46.89,44.91,44.91,72.0,0.0,25.322160800000002
Itteville,3012638,FR,2018-04-03 23:00:00,2.34,48.51,53.35,55.4,76.0,0.0,15.5019942
Nyakabindi,151266,TZ,2018-04-03 23:20:40,33.98,-2.63,59.18,59.18,90.0,48.0,5.5476112
Elk City,4535823,US,2018-04-03 22:55:00,-99.4,35.41,55.96,57.2,54.0,1.0,56.549843200000005
Bethalto,4233662,US,2018-04-03 23:15:00,-90.04,38.91,37.4,39.2,100.0,90.0,23.0181126
Pinardville,5091110,US,2018-04-03 22:56:00,-71.51,42.99,41.49,44.6,41.0,20.0,15.5019942
Simmozheim,2831992,DE,2018-04-03 22:50:00,8.81,48.75,50.95,51.8,53.0,0.0,5.010745600000001
Oberleichtersbach,2859938,DE,2018-04-03 23:20:41,9.8,50.27,44.73,44.73,83.0,92.0,20.065351800000002
Adelaide,2078025,AU,2018-04-03 23:00:00,138.6,-34.93,64.4,64.4,63.0,75.0,20.512739800000002
Gruiu,683447,RO,2018-04-03 23:00:00,26.42,44.23,39.2,39.2,69.0,0.0,2.5053728000000004
SantAgata deGoti,3167647,IT,2018-04-03 22:55:00,14.5,41.09,47.3,53.6,81.0,40.0,5.010745600000001
Martham,2642959,GB,2018-04-03 22:50:00,1.64,52.7,48.2,48.2,100.0,88.0,23.0181126
Milpitas,5373327,US,2018-04-03 23:00:00,-121.91,37.43,66.02,73.4,40.0,40.0,43.53085240000001
LaVerkin,5541693,US,2018-04-03 22:56:00,-113.27,37.2,70.97,78.8,10.0,1.0,43.53085240000001
Sinnamary,3380290,GF,2018-04-03 23:20:43,-52.96,5.38,78.93,78.93,100.0,92.0,19.3047922
Paso de Ovejas,3521825,MX,2018-04-03 22:46:00,-96.44,19.28,84.2,84.2,58.0,20.0,28.520985000000003
Saratovskaya,498672,RU,2018-04-03 22:30:00,39.22,44.71,50.0,50.0,76.0,0.0,40.041226
Santa Teresa Gallura,3167359,IT,2018-04-03 23:00:00,9.19,41.24,50.54,55.4,71.0,90.0,36.0371034
Qujing,1797318,CN,2018-04-03 23:20:44,103.8,25.49,52.34,52.34,78.0,32.0,10.5583568
Villamagna,3164213,IT,2018-04-03 22:50:00,14.24,42.33,44.6,44.6,87.0,12.0,7.5161184
Beausoleil,3034041,FR,2018-04-03 23:00:00,7.42,43.75,53.49,55.4,71.0,0.0,10.513618000000001
Kinghorn,2645500,GB,2018-04-03 22:50:00,-3.17,56.07,35.6,35.6,93.0,90.0,46.528352000000005
Floreffe,2798280,BE,2018-04-03 22:50:00,4.76,50.43,50.31,51.8,87.0,20.0,23.0181126
Chaoyang,2038120,CN,2018-04-03 23:20:54,120.44,41.58,36.72,36.72,64.0,92.0,41.584714600000005
Rochester,5043473,US,2018-04-03 22:51:00,-92.46,44.02,33.8,35.6,59.0,90.0,23.0181126
Kollam,1259091,IN,2018-04-03 23:00:00,76.6,8.88,82.4,82.4,83.0,20.0,10.513618000000001
Kemaliye,308230,TR,2018-04-03 23:20:54,38.5,39.26,34.11,34.11,79.0,0.0,10.312293400000001
Midhurst,2642567,GB,2018-04-03 22:50:00,-0.74,50.99,50.0,50.0,93.0,75.0,13.018990800000001
Coquille,5720575,US,2018-04-03 22:56:00,-124.19,43.18,52.02,53.6,61.0,75.0,25.523485400000002
Kurinjippadi,1265504,IN,2018-04-03 23:20:46,79.59,11.57,78.35,78.35,95.0,0.0,9.3056704
Okehampton,2641049,GB,2018-04-03 21:50:00,-4.0,50.74,48.2,48.2,100.0,40.0,28.520985000000003
Wurmannsquick,2805694,DE,2018-04-03 22:50:00,12.79,48.35,51.8,51.8,53.0,75.0,23.0181126
Langepas,6696767,RU,2018-04-03 23:20:47,75.21,61.25,-0.99,-0.99,80.0,0.0,16.0612292
Dragomiresti,678926,RO,2018-04-03 23:20:47,25.33,44.92,29.48,29.48,77.0,0.0,5.301547800000001
Puerto Rosario,3437342,PY,2018-04-03 23:20:56,-57.14,-24.44,73.98,73.98,73.0,36.0,14.316416000000002
Bonneuil-sur-Marne,3031709,FR,2018-04-03 23:00:00,2.49,48.77,53.33,55.4,76.0,0.0,15.5019942
North Arlington,5101873,US,2018-04-03 23:15:00,-74.13,40.79,40.71,42.8,65.0,1.0,8.813543600000001
La Fresnais,3009266,FR,2018-04-03 23:00:00,-1.84,48.6,51.8,51.8,87.0,0.0,36.0371034
Lunen,2750052,NL,2018-04-03 22:55:00,5.74,51.78,51.06,51.8,76.0,75.0,31.0263578
Queanbeyan,2152286,AU,2018-04-03 23:00:00,149.23,-35.35,62.6,62.6,72.0,75.0,18.007367000000002
La Chaux-de-Fonds,2660076,CH,2018-04-03 22:50:00,6.83,47.1,44.98,48.2,49.0,0.0,10.513618000000001
Hallettsville,4695866,US,2018-04-03 22:58:00,-96.94,29.44,79.68,80.6,61.0,1.0,33.5317306
Plopana,670472,RO,2018-04-03 23:00:00,27.22,46.68,41.14,42.8,86.0,0.0,5.010745600000001
Usab,3356332,NA,2018-04-03 23:20:50,15.87,-21.93,65.48,65.48,98.0,92.0,8.299047400000001
Belmez,2521167,ES,2018-04-03 23:00:00,-5.21,38.27,57.2,57.2,82.0,92.0,5.010745600000001
Valozhyn,620445,BY,2018-04-03 23:20:59,26.52,54.08,32.31,32.31,88.0,80.0,34.0685962
Niedererlinsbach,2659467,CH,2018-04-03 23:00:00,8.01,47.39,46.38,50.0,61.0,0.0,5.010745600000001
Jandiala Sher Khan,1176206,PK,2018-04-03 21:55:00,73.92,31.82,75.2,75.2,69.0,40.0,13.018990800000001
Oliveira de Azemeis,2737046,PT,2018-04-03 23:00:00,-8.48,40.84,56.25,57.2,93.0,75.0,28.520985000000003
Zawidow,3080533,PL,2018-04-03 23:20:52,15.06,51.03,36.63,36.63,74.0,44.0,15.8151658
Wegorzewo,756048,PL,2018-04-03 23:20:52,21.74,54.22,27.81,27.81,97.0,0.0,19.573225
Washington Terrace,5784384,US,2018-04-03 22:58:00,-111.98,41.17,41.38,44.6,64.0,75.0,18.007367000000002
Julbach,2908661,AT,2018-04-03 22:50:00,13.87,48.66,44.6,44.6,65.0,75.0,5.010745600000001
Manuel,6362025,ES,2018-04-03 23:00:00,-0.49,39.05,51.8,51.8,81.0,0.0,5.010745600000001
Tevriz,1489661,RU,2018-04-03 23:15:52,72.4,57.51,20.21,20.21,88.0,0.0,13.5558564
Itxassou,3012636,FR,2018-04-03 23:00:00,-1.41,43.33,58.5,62.6,39.0,0.0,18.007367000000002
Sarroch,2523222,IT,2018-04-03 22:55:00,9.01,39.06,54.21,57.2,82.0,0.0,25.523485400000002
Kongolo,212360,CD,2018-04-03 23:20:54,27.0,-5.39,69.57,69.57,98.0,88.0,6.554234200000001
Menen,2791343,BE,2018-04-03 23:00:00,3.12,50.8,50.47,51.8,93.0,0.0,33.5317306
Dublin,2964574,IE,2018-04-03 22:30:00,-6.26,53.35,42.8,42.8,100.0,75.0,13.018990800000001
Shabrovskiy,1492536,RU,2018-04-03 22:30:00,60.58,56.64,8.6,8.6,92.0,24.0,5.7936746
Laurel,5661766,US,2018-04-03 22:53:00,-108.77,45.67,17.6,17.6,85.0,90.0,54.0444704
Communal,1697473,PH,2018-04-03 22:00:00,121.04,15.53,75.2,75.2,88.0,75.0,10.513618000000001
Chapayevka,2122104,RU,2018-04-03 22:30:00,158.83,53.06,19.4,19.4,57.0,36.0,5.010745600000001
Chipiona,3933345,PE,2018-04-03 23:21:04,-75.2,-14.54,54.63,54.63,80.0,20.0,4.809421
Daday,748761,TR,2018-04-03 23:20:56,33.46,41.48,32.76,32.76,73.0,64.0,10.804420200000001
Powder Springs,4217214,US,2018-04-03 22:56:00,-84.68,33.86,78.13,80.6,21.0,75.0,13.018990800000001
Susangerd,137268,IR,2018-04-03 22:00:00,48.19,31.56,71.6,71.6,19.0,0.0,10.513618000000001
Fairwood,5794098,US,2018-04-03 22:56:00,-117.42,47.77,43.84,44.6,30.0,75.0,10.513618000000001
Isagarh,1269685,IN,2018-04-03 23:20:56,77.89,24.84,64.49,64.49,53.0,0.0,10.312293400000001
Conco,3178205,IT,2018-04-03 22:55:00,11.61,45.8,45.93,53.6,87.0,75.0,10.513618000000001
guengoeren merter,6354985,TR,2018-04-03 22:50:00,28.89,41.01,51.67,53.6,62.0,0.0,13.018990800000001
Vereya,475701,RU,2018-04-03 23:20:57,36.19,55.34,32.9,32.9,95.0,8.0,24.0694744
San Diego,5391811,US,2018-04-03 22:56:00,-117.16,32.72,61.79,62.6,72.0,90.0,20.512739800000002
Central Park,5789668,US,2018-04-03 22:55:00,-123.69,46.97,48.16,51.8,53.0,75.0,41.025479600000004
Chernihiv,710735,UA,2018-04-03 23:20:57,31.29,51.49,37.49,37.49,85.0,92.0,35.8357788
Waupun,5278106,US,2018-04-03 22:56:00,-88.73,43.63,37.09,39.2,35.0,40.0,13.018990800000001
Beach Park,4884249,US,2018-04-03 22:55:00,-87.86,42.42,38.55,42.8,64.0,1.0,15.5019942
Fermo,6541874,IT,2018-04-03 21:50:00,13.72,43.16,50.0,50.0,61.0,0.0,5.010745600000001
Vista Hermosa,3516266,MX,2018-04-03 23:05:00,-92.27,14.92,86.0,86.0,58.0,40.0,25.523485400000002
Long Branch,4240284,US,2018-04-03 23:15:00,-88.58,37.88,43.99,46.4,93.0,90.0,18.007367000000002
Melegnano,6540587,IT,2018-04-03 22:50:00,9.32,45.36,50.5,53.6,58.0,75.0,2.5053728000000004
Centerville,5772654,US,2018-04-03 22:58:00,-111.87,40.92,40.55,42.8,64.0,75.0,18.007367000000002
Ar Rustaq,289011,OM,2018-04-03 23:21:00,57.43,23.39,61.61,61.61,40.0,0.0,4.809421
Gorno-Altaysk,1506271,RU,2018-04-03 23:21:01,85.96,51.96,16.7,16.7,75.0,88.0,7.5608572
Northwest Harwinton,7257391,US,2018-04-03 22:55:00,-73.08,41.78,40.12,42.8,52.0,1.0,7.5161184
Terpinnya,691603,UA,2018-04-03 23:21:01,35.42,46.97,41.09,41.09,93.0,56.0,26.8209106
Hornachuelos,2516630,ES,2018-04-03 23:00:00,-5.25,37.83,57.2,57.2,82.0,92.0,5.010745600000001
San Miguel Siguila,3589706,GT,2018-04-03 22:00:00,-91.62,14.9,89.6,89.6,46.0,20.0,20.512739800000002
Amarastii de Sus,686384,RO,2018-04-03 23:00:00,24.15,43.98,42.8,42.8,60.0,0.0,13.018990800000001
Brigg,2654721,GB,2018-04-03 22:50:00,-0.49,53.55,47.98,50.0,93.0,48.0,28.520985000000003
Gangapur,1271680,IN,2018-04-03 23:21:11,75.01,19.7,67.19,67.19,48.0,0.0,14.808542800000001
Kuyucak,305210,TR,2018-04-03 23:21:11,28.46,37.91,39.06,39.06,79.0,0.0,4.2949248
Memmingen,2871992,DE,2018-04-03 22:50:00,10.18,47.99,46.72,50.0,61.0,92.0,7.5161184
Sijunjung,1627185,ID,2018-04-03 23:21:03,100.95,-0.69,69.66,69.66,99.0,88.0,3.0422384000000005
Sarandi,3447997,BR,2018-04-03 23:21:12,-52.92,-27.94,65.61,65.61,95.0,56.0,11.050483600000002
Pleumeur-Bodou,2986761,FR,2018-04-03 23:00:00,-3.52,48.77,51.8,51.8,87.0,76.0,36.0371034
Nahuatzen,3993457,MX,2018-04-03 22:49:00,-101.92,19.65,78.8,78.8,41.0,20.0,25.523485400000002
Herzogenbuchsee,2660355,CH,2018-04-03 23:00:00,7.71,47.19,46.13,50.0,87.0,0.0,7.5161184
Velen,2817704,DE,2018-04-03 22:50:00,6.98,51.9,50.43,51.8,71.0,75.0,20.512739800000002
Lorenz Park,5125295,US,2018-04-03 22:51:00,-73.77,42.26,42.87,46.4,28.0,75.0,20.512739800000002
Morehead,4301307,US,2018-04-03 22:23:00,-83.43,38.18,44.6,44.6,81.0,90.0,7.5161184
Sarentino,3167131,IT,2018-04-03 22:55:00,11.36,46.64,40.01,53.6,92.0,90.0,64.5580884
Gajuwaka,7302833,IN,2018-04-03 23:21:05,83.22,17.7,71.73,71.73,86.0,0.0,6.0621074
Sorsk,1491360,RU,2018-04-03 23:21:14,90.25,54.0,10.08,10.08,74.0,64.0,11.050483600000002
Ugad,1680428,PH,2018-04-03 23:21:06,121.8,17.29,71.51,71.51,99.0,92.0,6.8002976
Bornhoved,2946100,DE,2018-04-03 22:50:00,10.23,54.07,41.76,44.6,75.0,0.0,23.0181126
Angeles City,1730737,PH,2018-04-03 23:00:00,120.58,15.15,76.77,78.8,88.0,75.0,7.5161184
Bealanana,1068670,MG,2018-04-03 23:21:06,48.75,-14.54,62.01,62.01,93.0,44.0,4.809421
Sant Antoni de Portmany,2511448,ES,2018-04-03 23:00:00,1.3,38.98,55.4,55.4,87.0,0.0,5.010745600000001
Gubinikha,707928,UA,2018-04-03 22:30:00,35.25,48.81,39.2,39.2,80.0,90.0,30.019734800000002
Singaparna,1626936,ID,2018-04-03 23:21:07,108.11,-7.35,67.77,67.77,93.0,20.0,2.5501116
Santa Ines Ahuatempan,3517426,MX,2018-04-03 23:21:07,-98.02,18.42,78.21,78.21,28.0,80.0,10.5583568
Shatsk,694333,UA,2018-04-03 23:21:16,23.92,51.49,31.91,31.91,90.0,0.0,18.074475200000002
Taurisano,2522970,IT,2018-04-03 22:55:00,18.21,39.96,51.73,55.4,93.0,0.0,10.513618000000001
Takeo,1850834,JP,2018-04-03 22:30:00,130.02,33.2,59.49,64.4,72.0,20.0,25.523485400000002
Casalbuttano,3180242,IT,2018-04-03 22:55:00,9.96,45.25,51.8,53.6,76.0,0.0,10.513618000000001
Ust-Talovka,1517610,KZ,2018-04-03 23:21:09,81.85,50.55,22.23,22.23,94.0,88.0,11.050483600000002
Jay,4539557,US,2018-04-03 22:58:00,-94.8,36.42,55.17,59.0,100.0,90.0,13.018990800000001
Bin Qirdan,2472431,TN,2018-04-03 23:21:18,11.22,33.14,61.47,61.47,60.0,36.0,26.3287838
Nole,3172226,IT,2018-04-03 22:50:00,7.57,45.24,48.2,48.2,87.0,40.0,5.010745600000001
Termas de Rio Hondo,3834502,AR,2018-04-03 23:21:19,-64.86,-27.5,71.6,71.6,77.0,64.0,6.3081708
Inverigo,3175497,IT,2018-04-03 22:50:00,9.22,45.74,51.08,53.6,58.0,75.0,2.5053728000000004
Maubin,1310362,MM,2018-04-03 22:30:00,95.65,16.73,80.6,80.6,78.0,40.0,13.018990800000001
Hindas,2706392,SE,2018-04-03 22:50:00,12.45,57.7,24.8,24.8,68.0,0.0,4.809421
North Fork Village,4519883,US,2018-04-03 22:55:00,-83.03,39.34,41.72,44.6,75.0,90.0,13.018990800000001
Santiago Teyahualco,3827596,MX,2018-04-03 23:05:00,-99.13,19.66,72.46,77.0,16.0,90.0,7.5161184
Never,2019296,RU,2018-04-03 23:21:12,124.16,53.98,18.68,18.68,31.0,0.0,27.827533600000002
Tobarra,2510426,ES,2018-04-03 23:00:00,-1.69,38.59,55.4,55.4,50.0,0.0,18.007367000000002
Plopu,684802,RO,2018-04-03 23:00:00,27.44,46.2,39.2,39.2,86.0,0.0,5.010745600000001
Benton Heights,4985713,US,2018-04-03 22:54:00,-86.41,42.13,40.62,42.8,38.0,1.0,36.0371034
Makabe,2112019,JP,2018-04-03 22:30:00,140.1,36.27,55.27,57.2,82.0,75.0,15.5019942
Orleans,3455784,BR,2018-04-03 23:21:13,-49.29,-28.36,64.98,64.98,95.0,0.0,9.5517338
Santutxu,6618856,ES,2018-04-03 23:00:00,-2.92,43.25,58.33,66.2,48.0,76.0,7.5161184
Baitoa,3512166,DO,2018-04-03 23:00:00,-70.7,19.33,77.97,78.8,83.0,40.0,13.018990800000001
Laage,2882141,DE,2018-04-03 22:50:00,12.35,53.93,35.6,35.6,80.0,75.0,23.0181126
Ytrac,2967201,FR,2018-04-03 23:00:00,2.36,44.91,46.4,46.4,61.0,0.0,31.0263578
Rusko Selo,836698,RS,2018-04-03 23:00:00,20.57,45.76,40.33,42.8,93.0,0.0,20.512739800000002
Pardeeville,5266199,US,2018-04-03 22:56:00,-89.3,43.54,38.3,41.0,37.0,90.0,18.007367000000002
Polatsk,623317,BY,2018-04-03 23:21:15,28.77,55.49,32.99,32.99,85.0,64.0,45.074341
Zempoala,3526992,MX,2018-04-03 23:21:15,-98.0,20.09,71.24,71.24,34.0,20.0,5.7936746
Sabana Iglesia,3493478,DO,2018-04-03 23:00:00,-70.75,19.32,77.97,78.8,83.0,40.0,13.018990800000001
Flat River,4386685,US,2018-04-03 22:14:00,-90.52,37.85,37.4,37.4,100.0,90.0,15.5019942
Pedro II,3392431,BR,2018-04-03 23:21:16,-41.45,-4.43,72.41,72.41,96.0,20.0,5.301547800000001
Tomas Barron,3902685,BO,2018-04-03 23:21:25,-67.52,-17.58,43.47,43.47,45.0,12.0,13.8019198
Sabinopolis,3450806,BR,2018-04-03 23:21:25,-43.08,-18.67,65.88,65.88,92.0,24.0,5.5476112
Cervantes,3861966,AR,2018-04-03 22:00:00,-67.39,-39.05,82.4,82.4,37.0,0.0,18.007367000000002
Saint-Etienne-du-Bois,2980240,FR,2018-04-03 23:00:00,5.29,46.29,54.18,55.4,37.0,0.0,20.512739800000002
Dulce Nombre de Culmi,3612810,HN,2018-04-03 23:00:00,-85.56,15.08,84.2,84.2,58.0,40.0,5.010745600000001
Magallanes,1704052,PH,2018-04-03 23:21:27,123.84,12.83,79.43,79.43,100.0,24.0,25.5682242
Yelabuga,468082,RU,2018-04-03 22:30:00,52.06,55.76,33.8,33.8,64.0,0.0,30.019734800000002
Huedin,675937,RO,2018-04-03 23:00:00,23.03,46.86,32.0,32.0,89.0,0.0,7.5161184
Bardo,3103847,PL,2018-04-03 23:00:00,16.74,50.51,35.6,35.6,80.0,0.0,20.512739800000002
Villanova del Battista,3164182,IT,2018-04-03 22:55:00,15.16,41.12,39.2,39.2,69.0,0.0,20.512739800000002
Gau-Bischofsheim,2922304,DE,2018-04-03 22:57:00,8.27,49.91,49.15,50.0,76.0,75.0,7.5161184
Pokrovo-Prigorodnoye,507479,RU,2018-04-03 23:21:20,41.42,52.68,36.68,36.68,93.0,88.0,38.833278400000005
Makuyuni,149768,TZ,2018-04-03 23:21:29,38.33,-5.02,63.18,63.18,93.0,56.0,1.2974252
Broekhem,2758275,NL,2018-04-03 22:55:00,5.82,50.87,52.11,53.6,76.0,90.0,43.53085240000001
Chadwell Heath,6690869,GB,2018-04-03 22:50:00,0.13,51.57,49.73,51.8,87.0,75.0,31.0263578
Carouge,2661265,FR,2018-04-03 23:00:00,6.14,46.18,48.72,51.8,53.0,75.0,13.018990800000001
Manteca,5370164,US,2018-04-03 22:55:00,-121.21,37.8,75.67,78.8,39.0,1.0,20.512739800000002
Kirkburton,2645314,GB,2018-04-03 22:50:00,-1.7,53.61,44.35,50.0,100.0,40.0,13.018990800000001
Petroupolis,255377,GR,2018-04-03 22:50:00,23.68,38.04,47.21,50.0,76.0,0.0,3.5567346000000004
Recodo,1693620,PH,2018-04-03 23:21:22,121.49,13.03,71.51,71.51,100.0,92.0,3.802798
Lowes Island,4770931,US,2018-04-03 22:56:00,-77.35,39.04,46.27,50.0,75.0,90.0,7.5161184
Maienfeld,2659787,CH,2018-04-03 22:50:00,9.53,47.01,47.97,60.8,87.0,90.0,43.53085240000001
Dongcun,1812619,CN,2018-04-03 23:21:32,111.67,38.28,48.96,48.96,57.0,64.0,17.0678522
Kanel,2250849,SN,2018-04-03 23:00:00,-13.18,15.49,86.0,86.0,27.0,0.0,5.010745600000001
Raypur,1275778,IN,2018-04-03 23:21:24,75.87,21.07,67.1,67.1,49.0,0.0,8.299047400000001
Kurgan,1501321,RU,2018-04-03 23:21:24,65.32,55.45,18.5,18.5,76.0,48.0,9.5517338
